~VERSION INFORMATION
VERS.    2.0:   CWLS LOG ASCII STANDARD - VERSION 2.0
WRAP.     NO:   ONE LINE PER STEP
~WELL INFORMATION BLOCK
#MNEM.UNIT      DATA                  DESCRIPTION OF MNEMONIC
#----   --------             ---------------
STRT.m  481.50                   :START DEPTH
STOP.m  5220.00                   :STOP DEPTH
STEP.m  0.50                   :STEP VALUE
NULL.  -999.25                   :NULL VALUE
COMP.                      :COMPANY NAME
WELL.   Pharos-1                   :WELL NAME
FLD .   BROWSE                   :FIELD NAME
LOC .                      :LOCATION
PROV.                      :PROVINCE
SRVC.   Geoservices                   :SERVICE COMPANY NAME
DATE.   07-11-2014 02:35:18                   :DATE
UWI .                      :UNIQUE WELL IDENTIFIER
~PARAMETER INFORMATION
~CURVE INFORMATION
#MNEM.UNIT       API CODE        CURVE DESCRIPTION
#----   -------- ------------------
 .m        :
ROP offline .m/h        :ROP offline
Surface Torque .lbf.ft        :Surface Torque
Weight On Bit Driller .klbm        :Weight On Bit Driller
Mud Weight In .ppg        :Mud Weight In
Mud Weight Out .ppg        :Mud Weight Out
Temperature In .degC        :Temperature In
Temperature Out .degC        :Temperature Out
D-Exponent .Euc        :D-Exponent
Total RPM [Surface + DHM] .1/min        :Total RPM [Surface + DHM]
Stand Pipe Pressure .psi        :Stand Pipe Pressure
Pump flow .gpm        :Pump flow
TotalRotaryTime .h        :TotalRotaryTime
Bit Time .h        :Bit Time
Bit Run .m        :Bit Run
TotalCumRevOnBottom .Euc        :TotalCumRevOnBottom
Sum All Pits .bbl        :Sum All Pits
ECD .ppg        :ECD
#
#-----------------------------------------------------------
#  (m)   ROP offline (m/h)   Surface Torque (lbf.ft)   Weight On Bit Driller (klbm)   Mud Weight In (ppg)   Mud Weight Out (ppg)   Temperature In (degC)   Temperature Out (degC)   D-Exponent (Euc)   Total RPM [Surface + DHM] (1/min)   Stand Pipe Pressure (psi)   Pump flow (gpm)   TotalRotaryTime (h)   Bit Time (h)   Bit Run (m)   TotalCumRevOnBottom (Euc)   Sum All Pits (bbl)   ECD (ppg)
#-----------------------------------------------------------
~A
# ...
   3621.50	     11.34	     11950	     58.85	      8.60	      8.68	      27.5	      30.9	      2.00	       174	      3953	      1031	    191.74	    108.11	   1353.16	   1116956	      1904.70	      8.68	
   3622.00	     11.70	     11890	     58.54	      8.60	      8.69	      28.0	      30.9	      1.96	       174	      3958	      1030	    191.79	    108.15	   1353.72	   1117452	      1899.60	      8.68	
   3622.50	     12.27	     12763	     57.90	      8.60	      8.69	      28.2	      30.8	      1.99	       174	      4011	      1032	    191.83	    108.19	   1354.16	   1117883	      1899.43	      8.68	
   3623.00	     11.14	     13344	     59.73	      8.60	      8.70	      28.4	      30.9	      1.95	       174	      3994	      1031	    191.87	    108.23	   1354.68	   1118286	      1895.37	      8.68	
   3623.50	     13.19	     12960	     60.83	      8.60	      8.70	      28.4	      31.2	      1.98	       174	      4000	      1031	    191.91	    108.28	   1355.19	   1118738	      1897.59	      8.68	
   3624.00	     12.23	     11960	     61.22	      8.60	      8.70	      28.4	      31.2	      2.02	       173	      3948	      1030	    191.95	    108.32	   1355.67	   1119146	      1842.96	      8.68	
   3624.50	     10.30	     11397	     60.54	      8.60	      8.68	      28.4	      31.4	      2.04	       174	      3926	      1030	    192.00	    108.37	   1356.16	   1119671	      1768.18	      8.68	
   3625.00	     10.46	     12424	     57.57	      8.60	      8.67	      28.0	      31.3	      1.96	       173	      3975	      1030	    192.05	    108.41	   1356.75	   1120169	      1716.42	      8.68	
   3625.50	     12.52	     12023	     59.85	      8.60	      8.65	      27.6	      31.3	      1.92	       174	      3938	      1031	    192.08	    108.45	   1357.15	   1120531	      1712.47	      8.68	
   3626.00	     12.15	     11332	     60.77	      8.60	      8.63	      27.2	      31.3	      2.05	       174	      3924	      1031	    192.13	    108.50	   1357.68	   1121041	      1769.48	      8.68	
   3626.50	     10.51	     11887	     64.65	      8.60	      8.64	      26.8	      31.1	      2.05	       174	      3912	      1028	    192.17	    108.54	   1358.15	   1121516	      1815.40	      8.68	
   3627.00	      9.41	     10232	     64.48	      8.60	      8.66	      26.5	      31.0	      2.18	       174	      3863	      1029	    192.24	    108.61	   1358.70	   1122179	      1879.22	      8.68	
   3627.50	      8.76	     11460	     63.08	      8.60	      8.66	      26.3	      30.9	      2.11	       174	      3891	      1029	    192.31	    108.68	   1359.19	   1122895	      1885.99	      8.68	
   3628.00	      8.82	     10447	     57.28	      8.60	      8.67	      26.2	      30.9	      2.10	       174	      3875	      1028	    192.36	    108.73	   1359.70	   1123422	      1905.37	      8.68	
   3628.50	      8.24	     11200	     57.18	      8.60	      8.68	      26.2	      31.1	      2.08	       174	      3905	      1029	    192.43	    108.80	   1360.22	   1124207	      1908.42	      8.68	
   3629.00	      7.95	     11131	     58.25	      8.60	      8.68	      26.3	      31.1	      2.11	       174	      3908	      1029	    192.48	    108.85	   1360.71	   1124702	      1904.50	      8.68	
   3629.50	      7.00	     13094	     50.87	      8.60	      8.71	      26.3	      31.2	      2.13	       174	      4009	      1031	    192.56	    108.92	   1361.16	   1125496	      1806.96	      8.68	
   3630.00	     10.55	      9032	     55.16	      8.60	      8.72	      26.2	      31.5	      1.84	       174	      3964	      1031	    192.59	    108.96	   1361.65	   1125837	      1750.39	      8.68	
   3630.50	     12.30	     11745	     56.17	      8.60	      8.73	      26.2	      31.6	      2.00	       174	      3884	      1029	    192.64	    109.01	   1362.19	   1126396	      1725.69	      8.68	
   3631.00	      8.93	     10980	     54.46	      8.60	      8.61	      26.2	      30.8	      2.04	       174	      3906	      1026	    192.71	    109.08	   1362.65	   1127094	      1739.76	      8.68	
   3631.50	      8.30	     11405	     54.88	      8.60	      8.64	      26.0	      30.7	      2.00	       174	      4021	      1032	    192.77	    109.14	   1363.20	   1127710	      1797.04	      8.68	
   3632.00	      9.10	     11210	     56.31	      8.60	      8.75	      25.9	      33.1	      2.03	       172	      3928	      1027	    192.82	    109.19	   1363.72	   1128283	      1865.84	      8.68	
   3632.50	      8.35	     10332	     53.77	      8.60	      8.69	      27.4	      32.2	      2.05	       174	      3837	      1025	    192.88	    109.25	   1364.14	   1128908	      1967.72	      8.68	
   3633.00	      8.22	     11042	     54.83	      8.60	      8.67	      27.8	      31.2	      2.05	       173	      3859	      1025	    192.94	    109.31	   1364.72	   1129532	      1967.90	      8.68	
   3633.50	      7.38	     10648	     56.74	      8.60	      8.68	      28.3	      31.3	      2.10	       173	      3854	      1025	    193.01	    109.38	   1365.23	   1130257	      1973.24	      8.68	
   3634.00	      7.07	     14103	     57.60	      8.60	      8.70	      28.4	      31.3	      2.08	       172	      3852	      1024	    193.09	    109.46	   1365.72	   1131039	      1965.68	      8.68	
   3634.50	      7.24	     10933	     56.17	      8.60	      8.73	      28.4	      31.2	      2.14	       178	      3871	      1025	    193.17	    109.53	   1366.21	   1131848	      1969.66	      8.68	
   3635.00	      6.14	     11669	     56.96	      8.60	      8.73	      28.4	      31.0	      2.18	       178	      3869	      1025	    193.25	    109.61	   1366.68	   1132715	      1930.12	      8.68	
   3635.50	      5.58	     11769	     54.47	      8.60	      8.71	      28.3	      30.9	      2.19	       178	      3840	      1022	    193.34	    109.71	   1367.19	   1133733	      1785.96	      8.68	
   3636.00	      6.12	     11681	     53.36	      8.60	      8.63	      27.4	      29.9	      2.13	       178	      3840	      1022	    193.42	    109.79	   1367.70	   1134580	      1708.96	      8.68	
   3636.50	      8.07	     11317	     55.72	      8.60	      8.64	      27.0	      29.8	      2.07	       179	      3851	      1024	    193.47	    109.84	   1368.16	   1135082	      1758.98	      8.68	
   3637.00	      8.63	     12355	     56.08	      8.60	      8.66	      26.7	      29.5	      2.06	       178	      3881	      1024	    193.54	    109.90	   1368.72	   1135798	      1819.61	      8.68	
   3637.50	      6.50	     11724	     55.15	      8.60	      8.69	      26.3	      29.9	      2.16	       178	      3855	      1027	    193.64	    110.00	   1369.24	   1136875	      1915.10	      8.68	
   3638.00	      7.25	     12539	     56.59	      8.60	      8.69	      26.2	      30.2	      2.10	       178	      3938	      1027	    193.68	    110.05	   1369.67	   1137349	      1915.82	      8.68	
   3638.50	      9.21	     12872	     56.06	      8.60	      8.71	      26.1	      30.3	      2.03	       174	      3928	      1029	    193.74	    110.11	   1370.21	   1138027	      1909.54	      8.68	
   3639.00	      8.52	     10422	     56.12	      8.60	      8.70	      26.1	      30.3	      2.04	       174	      3899	      1028	    193.80	    110.17	   1370.70	   1138621	      1835.82	      8.68	
   3639.50	      8.29	     10466	     54.26	      8.60	      8.69	      26.0	      30.6	      2.07	       174	      3876	      1029	    193.87	    110.24	   1371.17	   1139378	      1720.18	      8.68	
   3640.00	      7.12	     10465	     56.41	      8.60	      8.63	      26.0	      30.8	      2.13	       173	      3842	      1028	    193.95	    110.31	   1371.67	   1140137	      1784.33	      8.68	
   3640.50	      6.30	     10832	     54.67	      8.60	      8.64	      26.0	      30.8	      2.16	       174	      3879	      1028	    194.02	    110.39	   1372.14	   1140951	      1882.06	      8.68	
   3641.00	      5.90	      9826	     56.90	      8.60	      8.66	      27.5	      30.5	      2.19	       174	      3846	      1029	    194.12	    110.49	   1372.70	   1141949	      1902.84	      8.68	
