~VERSION INFORMATION
VERS.    2.0:   CWLS LOG ASCII STANDARD - VERSION 2.0
WRAP.     NO:   ONE LINE PER STEP
~WELL INFORMATION BLOCK
#MNEM.UNIT      DATA                  DESCRIPTION OF MNEMONIC
#----   --------             ---------------
STRT.m  481.50                   :START DEPTH
STOP.m  5220.00                   :STOP DEPTH
STEP.m  0.50                   :STEP VALUE
NULL.  -999.25                   :NULL VALUE
COMP.                      :COMPANY NAME
WELL.   Pharos-1                   :WELL NAME
FLD .   BROWSE                   :FIELD NAME
LOC .                      :LOCATION
PROV.                      :PROVINCE
SRVC.   Geoservices                   :SERVICE COMPANY NAME
DATE.   07-11-2014 02:35:18                   :DATE
UWI .                      :UNIQUE WELL IDENTIFIER
~PARAMETER INFORMATION
~CURVE INFORMATION
#MNEM.UNIT       API CODE        CURVE DESCRIPTION
#----   -------- ------------------
 .m        :
ROP offline .m/h        :ROP offline
Surface Torque .lbf.ft        :Surface Torque
Weight On Bit Driller .klbm        :Weight On Bit Driller
Mud Weight In .ppg        :Mud Weight In
Mud Weight Out .ppg        :Mud Weight Out
Temperature In .degC        :Temperature In
Temperature Out .degC        :Temperature Out
D-Exponent .Euc        :D-Exponent
Total RPM [Surface + DHM] .1/min        :Total RPM [Surface + DHM]
Stand Pipe Pressure .psi        :Stand Pipe Pressure
Pump flow .gpm        :Pump flow
TotalRotaryTime .h        :TotalRotaryTime
Bit Time .h        :Bit Time
Bit Run .m        :Bit Run
TotalCumRevOnBottom .Euc        :TotalCumRevOnBottom
Sum All Pits .bbl        :Sum All Pits
ECD .ppg        :ECD
#
#-----------------------------------------------------------
#  (m)   ROP offline (m/h)   Surface Torque (lbf.ft)   Weight On Bit Driller (klbm)   Mud Weight In (ppg)   Mud Weight Out (ppg)   Temperature In (degC)   Temperature Out (degC)   D-Exponent (Euc)   Total RPM [Surface + DHM] (1/min)   Stand Pipe Pressure (psi)   Pump flow (gpm)   TotalRotaryTime (h)   Bit Time (h)   Bit Run (m)   TotalCumRevOnBottom (Euc)   Sum All Pits (bbl)   ECD (ppg)
#-----------------------------------------------------------
~A
# ...
   5201.50	      6.21	      4410	     26.11	      9.50	      9.52	      28.1	      38.5	      2.19	       135	      2388	       300	     48.52	     48.37	    188.93	    384287	      1365.10	      9.81	
   5202.00	      2.13	      5473	     25.35	      9.50	      9.52	      28.1	      38.8	      1.82	       133	      2367	       299	     48.92	     48.77	    189.38	    387515	      1359.43	      9.81	
   5202.50	      5.06	      5002	     24.81	      9.50	      9.52	      28.1	      38.8	      1.78	       127	      2375	       299	     49.00	     48.84	    189.81	    388109	      1361.62	      9.81	
   5203.00	      4.60	      5021	     24.85	      9.50	      9.52	      28.0	      39.5	      1.95	       135	      2389	       300	     49.13	     48.97	    190.26	    389120	      1362.42	      9.82	
   5203.50	      3.79	      5072	     25.50	      9.50	      9.52	      28.0	      39.3	      1.93	       131	      2395	       300	     49.27	     49.11	    190.83	    390225	      1362.53	      9.81	
   5204.00	      3.94	      5150	     26.21	      9.50	      9.52	      28.0	      38.9	      1.76	       135	      2391	       299	     49.41	     49.26	    191.23	    391330	      1361.79	      9.81	
   5204.50	      4.58	      5666	     26.18	      9.50	      9.52	      28.0	      38.8	      1.77	       134	      2377	       299	     49.52	     49.37	    191.71	    392196	      1358.08	      9.81	
   5205.00	      8.42	      5783	     26.31	      9.50	      9.52	      28.0	      38.7	      1.62	       141	      2380	       299	     49.56	     49.41	    192.18	    392552	      1357.08	      9.81	
   5205.50	      6.18	      4852	     21.56	      9.50	      9.52	      28.0	      38.7	      1.75	       128	      2598	       314	     49.72	     49.57	    192.66	    393770	      1355.97	      9.83	
   5206.00	     12.49	      5060	     24.31	      9.50	      9.52	      28.0	      38.7	      1.48	       137	      2608	       314	     49.74	     49.59	    193.14	    393959	      1359.76	      9.83	
   5206.50	     11.08	      5514	     23.83	      9.50	      9.52	      28.0	      38.6	      1.66	       138	      2592	       314	     49.79	     49.64	    193.78	    394406	      1361.20	      9.83	
   5207.00	      9.83	      5039	     24.08	      9.50	      9.52	      28.0	      38.7	      1.74	       137	      2618	       314	     49.86	     49.71	    194.16	    394959	      1356.74	      9.83	
   5207.50	      7.80	      5013	     24.72	      9.50	      9.52	      28.0	      38.6	      1.75	       137	      2621	       315	     49.92	     49.77	    194.63	    395452	      1355.71	      9.83	
   5208.00	      6.95	      4916	     25.59	      9.50	      9.52	      28.0	      38.6	      1.79	       131	      2610	       314	     50.00	     49.85	    195.26	    396082	      1353.91	      9.83	
   5208.50	      4.69	      4953	     24.81	      9.50	      9.52	      28.0	      38.6	      1.76	       139	      2599	       314	     50.10	     49.95	    195.62	    396926	      1354.06	      9.83	
   5209.00	      7.35	      3931	     22.74	      9.50	      9.52	      28.0	      38.6	      1.72	       140	      2603	       314	     50.27	     50.12	    196.10	    398375	      1351.19	      9.83	
   5209.50	     15.60	      3775	     20.76	      9.50	      9.52	      28.0	      38.4	      2.23	       142	      2506	       310	     50.60	     50.45	    196.66	    401105	      1336.36	      9.83	
   5210.00	      3.64	      4006	     24.07	      9.50	      9.52	      28.0	      38.4	      1.94	       140	      2506	       309	     50.70	     50.55	    197.25	    401908	      1332.94	      9.83	
   5210.50	      2.69	      4104	     23.38	      9.50	      9.57	      28.0	      38.3	      1.98	       142	      2579	       311	     50.91	     50.76	    197.67	    403647	      1344.11	      9.83	
   5211.00	      3.58	      5093	     23.54	      9.50	      9.53	      28.0	      38.3	      1.92	       143	      2562	       310	     51.04	     50.89	    198.21	    404721	      1342.90	      9.83	
   5211.50	      4.96	      5182	     23.62	      9.50	      9.53	      28.0	      38.3	      1.73	       140	      2549	       310	     51.13	     50.98	    198.63	    405488	      1344.31	      9.83	
   5212.00	      4.23	      4648	     23.81	      9.50	      9.53	      28.0	      38.2	      2.00	       133	      2558	       310	     51.32	     51.17	    199.20	    407045	      1340.18	      9.83	
   5212.50	      3.60	      4660	     24.68	      9.50	      9.53	      28.0	      38.2	      1.96	       135	      2556	       310	     51.47	     51.32	    199.72	    408239	      1345.60	      9.83	
   5213.00	      2.76	      4938	     24.67	      9.50	      9.53	      28.1	      38.2	      2.04	       140	      2560	       310	     51.68	     51.53	    200.22	    409962	      1347.57	      9.83	
   5213.50	      3.07	      4843	     24.87	      9.50	      9.53	      28.1	      38.2	      2.00	       137	      2558	       310	     51.83	     51.69	    200.62	    411254	      1346.30	      9.83	
   5214.00	      4.82	      5144	     24.65	      9.50	      9.53	      28.1	      38.2	      1.84	       140	      2525	       309	     52.04	     51.89	    201.12	    412888	      1346.95	      9.83	
   5214.50	      3.28	      4962	     26.73	      9.50	      9.53	      28.1	      38.1	      2.08	       146	      2524	       309	     52.20	     52.05	    201.60	    414220	      1349.47	      9.83	
   5215.00	      1.94	      4122	     25.09	      9.50	      9.53	      28.1	      38.8	      2.38	       135	      2523	       310	     52.72	     52.58	    202.14	    418522	      1342.31	      9.83	
   5215.50	      1.07	      4568	     23.24	      9.50	      9.53	      28.0	      38.8	      2.17	       139	      2520	       309	     53.12	     52.98	    202.60	    421755	      1344.85	      9.83	
   5216.00	      6.39	      5880	     26.07	      9.50	      9.53	      28.0	      38.8	      1.55	       139	      2515	       309	     53.18	     53.04	    203.03	    422263	      1340.56	      9.83	
   5216.50	     10.35	      5275	     26.40	      9.50	      9.53	      28.0	      38.9	      1.82	       141	      2514	       309	     53.27	     53.14	    203.53	    423008	      1338.19	      9.83	
   5217.00	      9.61	      5464	     23.36	      9.50	      9.52	      28.0	      39.0	      1.42	       136	      2500	       309	     53.34	     53.21	    203.97	    423543	      1341.88	      9.83	
   5217.50	     18.19	      5820	     26.35	      9.50	      9.53	      28.0	      39.0	      1.30	       123	      2511	       309	     53.40	     53.27	    204.55	    423996	      1341.53	      9.83	
   5218.00	     11.53	      5507	     24.88	      9.50	      9.53	      28.0	      39.0	      1.83	       114	      2516	       309	     53.49	     53.36	    205.02	    424673	      1341.72	      9.83	
   5218.50	     18.53	      5986	     24.69	      9.50	      9.53	      28.0	      38.9	      1.50	       119	      2529	       309	     53.56	     53.43	    205.51	    425263	      1340.37	      9.83	
   5219.00	      7.17	      5813	     24.12	      9.50	      9.53	      27.9	      38.9	      1.89	       135	      2514	       309	     53.70	     53.57	    206.11	    426308	      1336.33	      9.83	
   5219.50	      6.08	      5314	     24.43	      9.50	      9.53	      27.9	      38.8	      1.72	       127	      2543	       309	     53.78	     53.65	    206.57	    426934	      1335.01	      9.83	
   5220.00	      4.89	      1383	      0.15	      9.50	      9.53	      28.2	      38.9	      1.84	        13	      2031	       262	     54.11	     53.98	    207.55	    429478	      1325.14	      9.79	
