~VERSION INFORMATION
VERS.    2.0:   CWLS LOG ASCII STANDARD - VERSION 2.0
WRAP.     NO:   ONE LINE PER STEP
~WELL INFORMATION BLOCK
#MNEM.UNIT      DATA                  DESCRIPTION OF MNEMONIC
#----   --------             ---------------
STRT.m  481.50                   :START DEPTH
STOP.m  5220.00                   :STOP DEPTH
STEP.m  0.50                   :STEP VALUE
NULL.  -999.25                   :NULL VALUE
COMP.                      :COMPANY NAME
WELL.   Pharos-1                   :WELL NAME
FLD .   BROWSE                   :FIELD NAME
LOC .                      :LOCATION
PROV.                      :PROVINCE
SRVC.   Geoservices                   :SERVICE COMPANY NAME
DATE.   07-11-2014 02:35:18                   :DATE
UWI .                      :UNIQUE WELL IDENTIFIER
~PARAMETER INFORMATION
~CURVE INFORMATION
#MNEM.UNIT       API CODE        CURVE DESCRIPTION
#----   -------- ------------------
 .m        :
ROP offline .m/h        :ROP offline
Surface Torque .lbf.ft        :Surface Torque
Weight On Bit Driller .klbm        :Weight On Bit Driller
Mud Weight In .ppg        :Mud Weight In
Mud Weight Out .ppg        :Mud Weight Out
Temperature In .degC        :Temperature In
Temperature Out .degC        :Temperature Out
D-Exponent .Euc        :D-Exponent
Total RPM [Surface + DHM] .1/min        :Total RPM [Surface + DHM]
Stand Pipe Pressure .psi        :Stand Pipe Pressure
Pump flow .gpm        :Pump flow
TotalRotaryTime .h        :TotalRotaryTime
Bit Time .h        :Bit Time
Bit Run .m        :Bit Run
TotalCumRevOnBottom .Euc        :TotalCumRevOnBottom
Sum All Pits .bbl        :Sum All Pits
ECD .ppg        :ECD
#
#-----------------------------------------------------------
#  (m)   ROP offline (m/h)   Surface Torque (lbf.ft)   Weight On Bit Driller (klbm)   Mud Weight In (ppg)   Mud Weight Out (ppg)   Temperature In (degC)   Temperature Out (degC)   D-Exponent (Euc)   Total RPM [Surface + DHM] (1/min)   Stand Pipe Pressure (psi)   Pump flow (gpm)   TotalRotaryTime (h)   Bit Time (h)   Bit Run (m)   TotalCumRevOnBottom (Euc)   Sum All Pits (bbl)   ECD (ppg)
#-----------------------------------------------------------
~A
    481.50	   -999.25	        11	      0.00	      8.60	      0.25	      27.8	      33.4	   -999.25	        32	       304	       308	      0.00	      0.00	      0.00	        14	      1644.41	      8.60	
    482.00	     85.54	        11	      0.00	      8.60	      0.25	      27.8	      33.4	   -999.25	        48	       471	       459	      0.00	      0.00	      0.43	        25	      1640.67	      8.60	
    482.50	     94.97	        10	      0.00	      8.60	      0.25	      27.8	      33.4	   -999.25	        53	       533	       503	      0.00	      0.01	      0.94	        39	      1630.23	      8.60	
    483.00	    109.53	        11	      0.00	      8.60	      0.25	      27.8	      33.4	   -999.25	        53	       614	       499	      0.00	      0.01	      1.43	        53	      1621.31	      8.60	
    483.50	    111.47	        12	      0.00	      8.60	      0.25	      27.8	      33.4	   -999.25	        54	       620	       502	      0.00	      0.02	      1.93	        67	      1619.19	      8.60	
    484.00	    113.45	        12	      0.00	      8.60	      0.25	      27.8	      33.4	      0.21	        54	       717	       507	      0.00	      0.02	      2.43	        82	      1618.89	      8.60	
    484.50	    122.06	        12	      0.00	      8.60	      0.25	      27.8	      33.4	      0.24	        54	       687	       506	      0.00	      0.03	      2.94	        94	      1614.61	      8.60	
    485.00	    132.44	        12	      0.00	      8.60	      0.25	      27.8	      33.4	      0.28	        54	       656	       510	      0.00	      0.03	      3.40	       105	      1612.29	      8.60	
    485.50	    139.53	        12	      1.17	      8.60	      0.25	      27.8	      33.4	      0.29	        54	       692	       506	      0.00	      0.03	      3.95	       118	      1608.68	      8.60	
    486.00	    140.42	        11	      3.53	      8.60	      0.25	      27.8	      33.4	      0.29	        54	       691	       505	      0.00	      0.04	      4.42	       129	      1606.87	      8.60	
    486.50	    134.68	        12	      1.65	      8.60	      0.25	      27.8	      33.4	      0.29	        54	       729	       506	      0.00	      0.04	      4.93	       141	      1605.73	      8.60	
    487.00	    115.75	        12	      1.06	      8.60	      0.25	      27.8	      33.4	      0.31	        61	       873	       575	      0.00	      0.05	      5.42	       159	      1598.99	      8.60	
    487.50	     85.74	        12	      0.59	      8.60	      0.25	      27.8	      33.4	      0.32	        71	      1059	       666	      0.00	      0.05	      5.96	       190	      1594.56	      8.60	
    488.00	     78.59	        11	      0.13	      8.60	      0.25	      27.8	      33.4	      0.28	        73	      1135	       680	      0.00	      0.06	      6.46	       215	      1604.91	      8.60	
    488.50	     84.87	      1536	      0.00	      8.60	      0.25	      27.8	      33.4	      0.25	        73	      1125	       678	      0.00	      0.07	      6.97	       241	      1604.70	      8.60	
    489.00	     88.06	       207	      0.00	      8.60	      0.25	      27.8	      33.4	      0.24	        73	      1098	       680	      0.00	      0.07	      7.43	       264	      1597.78	      8.60	
    489.50	     91.03	       188	      0.00	      8.60	      0.25	      27.8	      33.4	      0.27	        73	      1096	       680	      0.00	      0.08	      7.96	       288	      1579.29	      8.60	
    490.00	     93.56	       570	      0.00	      8.60	      0.25	      27.8	      33.4	      0.30	        73	      1101	       679	      0.00	      0.08	      8.47	       312	      1565.70	      8.60	
    490.50	     92.63	       220	      0.00	      8.60	      0.25	      27.8	      33.4	      0.29	        73	      1129	       682	      0.00	      0.09	      8.96	       335	      1556.48	      8.60	
    491.00	     88.14	      1214	      0.35	      8.60	      0.25	      27.8	      33.4	      0.29	        73	      1140	       681	      0.00	      0.09	      9.46	       361	      1547.70	      8.60	
    491.50	     86.02	       319	      0.00	      8.60	      0.25	      27.8	      33.4	      0.31	        73	      1128	       679	      0.00	      0.10	      9.95	       386	      1540.27	      8.60	
    492.00	     81.69	      4699	      1.21	      8.60	      0.25	      27.8	      33.4	      0.33	        78	      1337	       726	      0.00	      0.11	     10.47	       416	      1541.82	      8.60	
    492.50	     80.46	      2812	      0.33	      8.60	      0.25	      27.8	      33.4	      0.32	        81	      1350	       754	      0.00	      0.11	     10.95	       444	      1544.11	      8.60	
    493.00	     80.35	       500	      0.00	      8.60	      0.25	      27.8	      33.4	      0.32	        98	      1345	       764	      0.00	      0.12	     11.47	       479	      1550.52	      8.60	
    493.50	     80.30	       503	      0.00	      8.60	      0.25	      27.8	      33.4	      0.32	        98	      1290	       765	      0.01	      0.12	     11.96	       513	      1551.78	      8.60	
    494.00	     83.35	       410	      0.28	      8.60	      0.25	      27.8	      33.4	      0.32	        98	      1268	       765	      0.01	      0.13	     12.45	       547	      1551.41	      8.60	
    494.50	     84.47	       927	      0.00	      8.60	      0.25	      27.8	      33.4	      0.32	        97	      1244	       764	      0.02	      0.14	     12.94	       581	      1553.96	      8.60	
    495.00	     83.38	       928	      0.24	      8.60	      0.25	      27.8	      33.4	      0.30	        97	      1233	       764	      0.03	      0.14	     13.42	       615	      1557.50	      8.60	
    495.50	     82.45	       966	      0.00	      8.60	      0.25	      27.8	      33.4	      0.29	        97	      1219	       764	      0.03	      0.15	     13.97	       654	      1557.71	      8.60	
    496.00	     81.89	       823	      0.00	      8.60	      0.25	      27.8	      33.4	      0.29	        98	      1251	       767	      0.04	      0.15	     14.45	       688	      1557.51	      8.60	
    496.50	     81.26	      1031	      0.00	      8.60	      0.25	      27.8	      33.4	      0.26	       104	      1410	       823	      0.04	      0.16	     14.92	       724	      1557.06	      8.61	
    497.00	     81.18	      1231	      0.02	      8.60	      0.25	      27.8	      33.4	      0.23	       114	      1454	       844	      0.05	      0.17	     15.46	       766	      1558.02	      8.61	
    497.50	     79.62	      1189	      0.00	      8.60	      0.25	      27.8	      33.4	      0.29	       114	      1470	       844	      0.06	      0.17	     15.91	       806	      1561.14	      8.61	
    498.00	     77.61	      1537	      0.00	      8.60	      0.25	      27.8	      33.4	      0.29	       114	      1509	       844	      0.06	      0.18	     16.43	       852	      1560.08	      8.61	
    498.50	     77.13	       879	      0.15	      8.60	      0.25	      27.8	      33.4	      0.29	       114	      1473	       845	      0.07	      0.19	     16.94	       897	      1563.48	      8.61	
    499.00	     79.82	       923	      0.00	      8.60	      0.25	      27.8	      33.4	      0.34	       114	      1435	       845	      0.08	      0.19	     17.43	       937	      1560.19	      8.61	
    499.50	     81.74	       559	      0.46	      8.60	      0.25	      27.8	      33.4	      0.36	       115	      1477	       844	      0.08	      0.20	     17.96	       983	      1548.63	      8.61	
    500.00	     79.74	       766	      0.00	      8.60	      0.25	      27.8	      33.4	      0.38	       114	      1291	       847	      0.09	      0.20	     18.43	      1023	      1535.32	      8.61	
    500.50	     78.27	      1219	      0.00	      8.60	      0.25	      27.8	      33.4	      0.36	       114	      1493	       841	      0.10	      0.21	     18.94	      1068	      1525.06	      8.61	
    501.00	     80.50	      1316	      0.46	      8.60	      0.25	      27.8	      33.4	      0.36	       114	      1561	       847	      0.10	      0.22	     19.43	      1108	      1519.44	      8.61	
