~VERSION INFORMATION
VERS.    2.0:   CWLS LOG ASCII STANDARD - VERSION 2.0
WRAP.     NO:   ONE LINE PER STEP
~WELL INFORMATION BLOCK
#MNEM.UNIT      DATA                  DESCRIPTION OF MNEMONIC
#----   --------             ---------------
STRT.m  481.50                   :START DEPTH
STOP.m  5220.00                   :STOP DEPTH
STEP.m  0.50                   :STEP VALUE
NULL.  -999.25                   :NULL VALUE
COMP.                      :COMPANY NAME
WELL.   Pharos-1                   :WELL NAME
FLD .   BROWSE                   :FIELD NAME
LOC .                      :LOCATION
PROV.                      :PROVINCE
SRVC.   Geoservices                   :SERVICE COMPANY NAME
DATE.   07-11-2014 02:35:18                   :DATE
UWI .                      :UNIQUE WELL IDENTIFIER
~PARAMETER INFORMATION
~CURVE INFORMATION
#MNEM.UNIT       API CODE        CURVE DESCRIPTION
#----   -------- ------------------
 .m        :
ROP offline .m/h        :ROP offline
Surface Torque .lbf.ft        :Surface Torque
Weight On Bit Driller .klbm        :Weight On Bit Driller
Mud Weight In .ppg        :Mud Weight In
Mud Weight Out .ppg        :Mud Weight Out
Temperature In .degC        :Temperature In
Temperature Out .degC        :Temperature Out
D-Exponent .Euc        :D-Exponent
Total RPM [Surface + DHM] .1/min        :Total RPM [Surface + DHM]
Stand Pipe Pressure .psi        :Stand Pipe Pressure
Pump flow .gpm        :Pump flow
TotalRotaryTime .h        :TotalRotaryTime
Bit Time .h        :Bit Time
Bit Run .m        :Bit Run
TotalCumRevOnBottom .Euc        :TotalCumRevOnBottom
Sum All Pits .bbl        :Sum All Pits
ECD .ppg        :ECD
#
#-----------------------------------------------------------
#  (m)   ROP offline (m/h)   Surface Torque (lbf.ft)   Weight On Bit Driller (klbm)   Mud Weight In (ppg)   Mud Weight Out (ppg)   Temperature In (degC)   Temperature Out (degC)   D-Exponent (Euc)   Total RPM [Surface + DHM] (1/min)   Stand Pipe Pressure (psi)   Pump flow (gpm)   TotalRotaryTime (h)   Bit Time (h)   Bit Run (m)   TotalCumRevOnBottom (Euc)   Sum All Pits (bbl)   ECD (ppg)
#-----------------------------------------------------------
~A
# ...
   3001.50	     18.50	     12198	     42.27	      8.60	      8.80	      28.2	      31.1	      1.57	       158	      3057	       910	    119.86	     37.88	    732.81	    405614	      1769.26	      8.68	
   3002.00	     17.91	     14256	     38.68	      8.60	      8.82	      28.0	      31.1	      1.58	       154	      2914	       871	    119.89	     37.91	    733.30	    405878	      1710.52	      8.68	
   3002.50	     19.90	     12968	     40.86	      8.60	      8.83	      27.9	      31.1	      1.53	       155	      2892	       879	    119.91	     37.93	    733.79	    406069	      1686.15	      8.68	
   3003.00	     19.47	     11755	     35.33	      8.60	      8.87	      27.8	      31.1	      1.55	       155	      2840	       876	    119.94	     37.97	    734.24	    406410	      1643.02	      8.68	
   3003.50	     21.36	     15471	     40.48	      8.60	      8.88	      27.6	      31.2	      1.49	       155	      2976	       877	    119.96	     37.98	    734.80	    406560	      1642.51	      8.68	
   3004.00	     26.55	     14523	     40.63	      8.60	      8.88	      27.5	      31.3	      1.45	       155	      2966	       877	    119.98	     38.00	    735.29	    406763	      1660.40	      8.68	
   3004.50	     21.77	     13700	     40.43	      8.60	      8.88	      27.4	      31.8	      1.55	       155	      2940	       877	    120.00	     38.03	    735.77	    406974	      1682.26	      8.68	
   3005.00	     18.54	     13254	     41.06	      8.60	      8.82	      27.2	      31.5	      1.59	       157	      2991	       902	    120.04	     38.06	    736.33	    407283	      1719.16	      8.68	
   3005.50	     16.74	     12271	     41.20	      8.60	      8.74	      27.1	      31.2	      1.62	       157	      3054	       903	    120.06	     38.09	    736.85	    407551	      1750.19	      8.68	
   3006.00	     15.34	     14188	     39.94	      8.60	      8.75	      26.5	      31.4	      1.64	       158	      3101	       903	    120.10	     38.13	    737.34	    407916	      1790.12	      8.68	
   3006.50	     14.85	     11915	     40.57	      8.60	      8.78	      26.9	      31.6	      1.64	       158	      3109	       904	    120.13	     38.16	    737.77	    408211	      1823.02	      8.68	
   3007.00	     14.64	     11010	     42.60	      8.60	      8.82	      26.8	      31.8	      1.67	       157	      3082	       903	    120.17	     38.19	    738.37	    408553	      1863.04	      8.68	
   3007.50	     13.55	      9399	     32.52	      8.60	      8.89	      26.5	      33.4	      1.63	       156	      2821	       895	    120.39	     38.23	    738.78	    408915	      1941.92	      8.68	
   3008.00	     12.87	     11379	     35.22	      8.60	      8.88	      26.4	      34.8	      1.60	       156	      2951	       898	    120.42	     38.27	    739.27	    409252	      1940.27	      8.68	
   3008.50	     12.99	     13624	     35.09	      8.60	      8.86	      26.4	      34.4	      1.61	       156	      3000	       898	    120.46	     38.31	    739.81	    409620	      1938.44	      8.68	
   3009.00	     15.97	     12521	     37.15	      8.60	      8.86	      26.4	      33.6	      1.53	       155	      2973	       896	    120.49	     38.34	    740.31	    409897	      1911.10	      8.68	
   3009.50	     18.19	     12203	     38.33	      8.60	      8.87	      26.4	      32.5	      1.55	       156	      2968	       897	    120.52	     38.37	    740.82	    410176	      1854.74	      8.68	
   3010.00	     16.01	     11241	     37.00	      8.60	      8.86	      26.3	      31.7	      1.57	       155	      2945	       895	    120.55	     38.39	    741.27	    410414	      1819.60	      8.68	
   3010.50	     15.84	     12452	     36.50	      8.60	      8.87	      26.3	      31.6	      1.56	       156	      3010	       897	    120.58	     38.43	    741.78	    410728	      1760.98	      8.68	
   3011.00	     15.47	     13656	     35.74	      8.60	      8.89	      26.3	      31.6	      1.57	       154	      2970	       896	    120.62	     38.46	    742.25	    411041	      1704.19	      8.68	
   3011.50	     15.32	     12889	     36.82	      8.60	      8.89	      26.3	      31.7	      1.58	       155	      2976	       897	    120.65	     38.49	    742.83	    411339	      1710.14	      8.68	
   3012.00	     17.46	     12065	     32.93	      8.60	      8.90	      26.3	      31.7	      1.51	       156	      2967	       900	    120.68	     38.52	    743.23	    411603	      1745.84	      8.68	
   3012.50	     21.33	     16386	     35.69	      8.60	      8.90	      26.3	      31.6	      1.48	       156	      3069	       898	    120.70	     38.54	    743.74	    411810	      1776.27	      8.68	
   3013.00	     18.84	     11552	     36.77	      8.60	      8.88	      26.3	      31.5	      1.55	       156	      2931	       897	    120.73	     38.58	    744.28	    412124	      1811.44	      8.68	
   3013.50	     16.35	     11016	     39.52	      8.60	      8.69	      26.3	      31.2	      1.59	       156	      2897	       896	    120.76	     38.61	    744.82	    412417	      1852.58	      8.68	
   3014.00	     13.48	     11658	     36.32	      8.60	      8.66	      27.0	      31.0	      1.67	       157	      2927	       897	    120.81	     38.65	    745.32	    412820	      1872.55	      8.68	
   3014.50	     11.38	     10343	     31.97	      8.60	      8.72	      27.7	      30.9	      1.63	       158	      2886	       896	    120.86	     38.70	    745.78	    413328	      1821.37	      8.68	
   3015.00	     12.93	     12429	     33.91	      8.60	      8.74	      27.9	      30.9	      1.56	       157	      2932	       894	    120.90	     38.74	    746.28	    413680	      1770.36	      8.68	
   3015.50	     13.59	     11744	     33.68	      8.60	      8.75	      28.1	      30.8	      1.57	       158	      2958	       897	    120.93	     38.77	    746.75	    413983	      1730.06	      8.68	
   3016.00	     14.09	     11596	     34.00	      8.60	      8.78	      27.9	      30.9	      1.57	       158	      2920	       897	    120.97	     38.81	    747.27	    414356	      1678.38	      8.68	
   3016.50	     14.48	     14575	     35.81	      8.60	      8.79	      27.7	      31.0	      1.58	       158	      3033	       899	    121.00	     38.84	    747.81	    414603	      1650.05	      8.68	
   3017.00	     14.75	     14861	     36.42	      8.60	      8.81	      27.4	      31.2	      1.58	       157	      2960	       895	    121.03	     38.88	    748.32	    414968	      1668.83	      8.68	
   3017.50	     14.89	     11871	     36.36	      8.60	      8.82	      27.3	      31.3	      1.60	       158	      2961	       898	    121.07	     38.91	    748.74	    415273	      1712.37	      8.68	
   3018.00	     13.66	     10812	     38.55	      8.60	      8.73	      27.1	      31.3	      1.66	       158	      2912	       898	    121.10	     38.95	    749.24	    415633	      1755.96	      8.68	
   3018.50	     12.67	     10837	     40.22	      8.60	      8.70	      26.9	      31.1	      1.69	       157	      2936	       896	    121.15	     38.99	    749.79	    416033	      1810.72	      8.68	
   3019.00	     11.78	      8685	     37.48	      8.60	      8.73	      26.7	      31.3	      1.71	       158	      2839	       896	    121.20	     39.05	    750.29	    416581	      1878.91	      8.68	
   3019.50	     10.97	     11746	     41.12	      8.60	      8.82	      26.6	      31.7	      1.75	       158	      2929	       896	    121.24	     39.09	    750.79	    416957	      1873.38	      8.68	
   3020.00	      9.78	     11207	     43.29	      8.60	      8.85	      26.5	      32.3	      1.79	       158	      2914	       896	    121.28	     39.13	    751.24	    417320	      1838.19	      8.68	
   3020.50	     10.63	     10410	     42.93	      8.60	      8.88	      26.4	      32.8	      1.74	       158	      2923	       896	    121.33	     39.18	    751.83	    417817	      1816.84	      8.68	
   3021.00	     13.25	     12111	     44.84	      8.60	      7.31	      26.3	      33.9	      1.68	       158	      3062	       898	    121.37	     39.21	    752.29	    418127	      1804.82	      8.68	
