~VERSION INFORMATION
VERS.    2.0:   CWLS LOG ASCII STANDARD - VERSION 2.0
WRAP.     NO:   ONE LINE PER STEP
~WELL INFORMATION BLOCK
#MNEM.UNIT      DATA                  DESCRIPTION OF MNEMONIC
#----   --------             ---------------
STRT.m  481.50                   :START DEPTH
STOP.m  5220.00                   :STOP DEPTH
STEP.m  0.50                   :STEP VALUE
NULL.  -999.25                   :NULL VALUE
COMP.                      :COMPANY NAME
WELL.   Pharos-1                   :WELL NAME
FLD .   BROWSE                   :FIELD NAME
LOC .                      :LOCATION
PROV.                      :PROVINCE
SRVC.   Geoservices                   :SERVICE COMPANY NAME
DATE.   07-11-2014 02:35:18                   :DATE
UWI .                      :UNIQUE WELL IDENTIFIER
~PARAMETER INFORMATION
~CURVE INFORMATION
#MNEM.UNIT       API CODE        CURVE DESCRIPTION
#----   -------- ------------------
 .m        :
ROP offline .m/h        :ROP offline
Surface Torque .lbf.ft        :Surface Torque
Weight On Bit Driller .klbm        :Weight On Bit Driller
Mud Weight In .ppg        :Mud Weight In
Mud Weight Out .ppg        :Mud Weight Out
Temperature In .degC        :Temperature In
Temperature Out .degC        :Temperature Out
D-Exponent .Euc        :D-Exponent
Total RPM [Surface + DHM] .1/min        :Total RPM [Surface + DHM]
Stand Pipe Pressure .psi        :Stand Pipe Pressure
Pump flow .gpm        :Pump flow
TotalRotaryTime .h        :TotalRotaryTime
Bit Time .h        :Bit Time
Bit Run .m        :Bit Run
TotalCumRevOnBottom .Euc        :TotalCumRevOnBottom
Sum All Pits .bbl        :Sum All Pits
ECD .ppg        :ECD
#
#-----------------------------------------------------------
#  (m)   ROP offline (m/h)   Surface Torque (lbf.ft)   Weight On Bit Driller (klbm)   Mud Weight In (ppg)   Mud Weight Out (ppg)   Temperature In (degC)   Temperature Out (degC)   D-Exponent (Euc)   Total RPM [Surface + DHM] (1/min)   Stand Pipe Pressure (psi)   Pump flow (gpm)   TotalRotaryTime (h)   Bit Time (h)   Bit Run (m)   TotalCumRevOnBottom (Euc)   Sum All Pits (bbl)   ECD (ppg)
#-----------------------------------------------------------
~A
# ...
   3941.50	     12.31	     13233	     36.32	      8.60	      8.80	      26.5	      31.1	      1.62	       159	      3864	       945	     13.19	      6.19	     95.87	     59294	      1765.13	      8.65	
   3942.00	     15.50	     12006	     36.55	      8.60	      8.80	      26.4	      31.1	      1.54	       159	      3916	       945	     13.22	      6.22	     96.36	     59565	      1793.62	      8.65	
   3942.50	     15.56	     11820	     36.16	      8.60	      8.80	      26.3	      31.1	      1.63	       159	      3869	       944	     13.27	      6.27	     96.86	     59992	      1826.98	      8.65	
   3943.00	     12.28	     11927	     36.32	      8.60	      8.79	      26.2	      31.0	      1.69	       159	      3875	       944	     13.31	      6.31	     97.37	     60367	      1834.24	      8.65	
   3943.50	     11.03	     13727	     37.10	      8.60	      8.80	      26.2	      31.1	      1.67	       159	      3764	       945	     13.35	      6.35	     97.89	     60798	      1843.49	      8.65	
   3944.00	     11.49	     11980	     37.15	      8.60	      8.80	      26.1	      31.1	      1.68	       159	      3773	       939	     13.39	      6.39	     98.32	     61211	      1778.89	      8.65	
   3944.50	     12.80	     11036	     37.62	      8.60	      8.80	      26.1	      30.8	      1.66	       160	      3848	       947	     13.43	      6.43	     98.83	     61564	      1722.74	      8.65	
   3945.00	     13.29	     12148	     37.48	      8.60	      8.69	      26.0	      30.7	      1.65	       159	      3915	       947	     13.47	      6.47	     99.40	     61956	      1673.74	      8.65	
   3945.50	     10.77	      9931	     35.18	      8.60	      8.59	      26.0	      30.6	      1.76	       160	      3768	       943	     13.53	      6.53	     99.84	     62510	      1714.05	      8.65	
   3946.00	     10.53	     11931	     38.11	      8.60	      8.71	      26.0	      30.6	      1.71	       160	      3860	       947	     13.57	      6.57	    100.42	     62877	      1737.75	      8.65	
   3946.50	     17.40	     13656	     37.98	      8.60	      8.75	      26.0	      30.5	      1.57	       160	      3891	       946	     13.59	      6.59	    100.82	     63074	      1751.97	      8.65	
   3947.00	     19.26	     13860	     37.83	      8.60	      8.77	      25.8	      30.5	      1.55	       159	      3903	       947	     13.62	      6.62	    101.36	     63403	      1771.77	      8.65	
   3947.50	     15.27	     13436	     37.96	      8.60	      8.79	      26.2	      30.3	      1.60	       158	      3885	       947	     13.66	      6.66	    101.89	     63719	      1809.09	      8.65	
   3948.00	     16.29	     12410	     38.48	      8.60	      8.81	      26.5	      30.2	      1.59	       159	      3875	       947	     13.69	      6.69	    102.38	     63995	      1830.82	      8.65	
   3948.50	     15.29	     12458	     38.69	      8.60	      8.82	      27.2	      29.9	      1.62	       160	      3907	       946	     13.72	      6.72	    102.84	     64315	      1845.86	      8.65	
   3949.00	     12.19	     10805	     36.41	      8.60	      8.83	      27.5	      29.8	      1.70	       159	      3754	       945	     13.77	      6.77	    103.42	     64847	      1848.75	      8.65	
   3949.50	     14.41	     11721	     38.55	      8.60	      8.82	      27.6	      30.0	      1.62	       159	      3783	       945	     13.80	      6.80	    103.91	     65070	      1849.72	      8.65	
   3950.00	     17.37	     12927	     38.40	      8.60	      8.84	      27.8	      29.7	      1.57	       161	      3905	       946	     13.83	      6.83	    104.39	     65400	      1851.00	      8.65	
   3950.50	     14.20	     11184	     36.94	      8.60	      8.84	      28.0	      29.6	      1.63	       160	      3851	       947	     13.87	      6.87	    104.85	     65740	      1806.32	      8.65	
   3951.00	     14.66	     12052	     38.39	      8.60	      8.85	      28.0	      29.5	      1.61	       160	      3891	       947	     13.90	      6.90	    105.42	     66046	      1756.68	      8.65	
   3951.50	     16.84	     13304	     37.83	      8.60	      8.84	      28.0	      29.5	      1.57	       159	      3885	       946	     13.93	      6.93	    105.82	     66315	      1713.98	      8.65	
   3952.00	     17.09	     12918	     37.67	      8.60	      8.71	      28.0	      29.8	      1.57	       160	      3917	       946	     13.96	      6.96	    106.37	     66618	      1670.90	      8.65	
   3952.50	     15.99	     12685	     38.17	      8.60	      8.69	      27.9	      30.0	      1.59	       160	      3917	       947	     13.99	      6.99	    106.87	     66883	      1647.87	      8.65	
   3953.00	     17.12	     12899	     38.50	      8.60	      8.72	      27.7	      30.1	      1.56	       158	      3873	       946	     14.02	      7.02	    107.36	     67165	      1658.96	      8.65	
   3953.50	     19.08	     14517	     39.12	      8.60	      8.74	      27.4	      30.2	      1.54	       159	      3948	       946	     14.04	      7.04	    107.86	     67402	      1674.92	      8.65	
   3954.00	     17.14	     12042	     36.57	      8.60	      8.78	      27.1	      30.3	      1.59	       160	      3831	       945	     14.08	      7.08	    108.37	     67787	      1704.62	      8.65	
   3954.50	     16.52	     11964	     37.73	      8.60	      8.80	      27.0	      30.3	      1.58	       160	      3864	       945	     14.11	      7.11	    108.83	     68018	      1719.30	      8.65	
   3955.00	     16.81	     12358	     37.60	      8.60	      8.81	      26.8	      30.5	      1.59	       158	      3889	       946	     14.14	      7.14	    109.38	     68393	      1754.89	      8.65	
   3955.50	     12.45	     10999	     36.01	      8.60	      8.85	      26.5	      30.7	      1.66	       160	      3870	       946	     14.19	      7.18	    109.88	     68778	      1784.67	      8.65	
   3956.00	     15.47	     12598	     38.13	      8.60	      8.90	      26.5	      31.4	      1.58	       159	      3937	       946	     14.21	      7.21	    110.34	     69012	      1803.18	      8.65	
   3956.50	     19.65	     12204	     38.08	      8.60	      8.92	      26.4	      32.1	      1.53	       160	      3942	       947	     14.24	      7.24	    110.87	     69291	      1847.90	      8.65	
   3957.00	     16.80	     12389	     38.16	      8.60	      8.93	      26.3	      31.9	      1.62	       160	      4069	       948	     14.27	      7.27	    111.36	     69560	      1890.77	      8.65	
   3957.50	     14.49	     11649	     39.50	      8.60	      8.86	      26.3	      31.2	      1.63	       158	      3912	       947	     14.30	      7.30	    111.83	     69893	      1910.59	      8.65	
   3958.00	     14.74	     11422	     38.07	      8.60	      8.84	      26.2	      30.8	      1.63	       160	      3875	       946	     14.35	      7.35	    112.36	     70334	      1879.64	      8.65	
   3958.50	     14.14	     11841	     38.45	      8.60	      8.84	      26.2	      30.7	      1.63	       160	      3880	       946	     14.37	      7.37	    112.82	     70560	      1841.93	      8.65	
   3959.00	     13.89	     11037	     37.28	      8.60	      8.74	      26.1	      30.5	      1.66	       160	      3783	       945	     14.42	      7.42	    113.38	     71065	      1757.80	      8.65	
   3959.50	     11.63	     12100	     38.28	      8.60	      8.66	      26.1	      30.5	      1.69	       160	      3864	       945	     14.46	      7.46	    113.85	     71382	      1698.62	      8.65	
   3960.00	     12.60	      9642	     36.76	      8.60	      8.68	      26.1	      30.3	      1.65	       159	      3774	       944	     14.50	      7.50	    114.34	     71804	      1670.69	      8.65	
   3960.50	     13.35	     11360	     38.33	      8.60	      8.71	      26.1	      30.4	      1.65	       160	      3822	       945	     14.54	      7.54	    114.86	     72187	      1697.89	      8.65	
   3961.00	     13.22	     12222	     39.64	      8.60	      8.72	      26.1	      30.4	      1.65	       160	      3877	       946	     14.57	      7.57	    115.38	     72450	      1732.62	      8.65	
