~VERSION INFORMATION
VERS.    2.0:   CWLS LOG ASCII STANDARD - VERSION 2.0
WRAP.     NO:   ONE LINE PER STEP
~WELL INFORMATION BLOCK
#MNEM.UNIT      DATA                  DESCRIPTION OF MNEMONIC
#----   --------             ---------------
STRT.m  481.50                   :START DEPTH
STOP.m  5220.00                   :STOP DEPTH
STEP.m  0.50                   :STEP VALUE
NULL.  -999.25                   :NULL VALUE
COMP.                      :COMPANY NAME
WELL.   Pharos-1                   :WELL NAME
FLD .   BROWSE                   :FIELD NAME
LOC .                      :LOCATION
PROV.                      :PROVINCE
SRVC.   Geoservices                   :SERVICE COMPANY NAME
DATE.   07-11-2014 02:35:18                   :DATE
UWI .                      :UNIQUE WELL IDENTIFIER
~PARAMETER INFORMATION
~CURVE INFORMATION
#MNEM.UNIT       API CODE        CURVE DESCRIPTION
#----   -------- ------------------
 .m        :
ROP offline .m/h        :ROP offline
Surface Torque .lbf.ft        :Surface Torque
Weight On Bit Driller .klbm        :Weight On Bit Driller
Mud Weight In .ppg        :Mud Weight In
Mud Weight Out .ppg        :Mud Weight Out
Temperature In .degC        :Temperature In
Temperature Out .degC        :Temperature Out
D-Exponent .Euc        :D-Exponent
Total RPM [Surface + DHM] .1/min        :Total RPM [Surface + DHM]
Stand Pipe Pressure .psi        :Stand Pipe Pressure
Pump flow .gpm        :Pump flow
TotalRotaryTime .h        :TotalRotaryTime
Bit Time .h        :Bit Time
Bit Run .m        :Bit Run
TotalCumRevOnBottom .Euc        :TotalCumRevOnBottom
Sum All Pits .bbl        :Sum All Pits
ECD .ppg        :ECD
#
#-----------------------------------------------------------
#  (m)   ROP offline (m/h)   Surface Torque (lbf.ft)   Weight On Bit Driller (klbm)   Mud Weight In (ppg)   Mud Weight Out (ppg)   Temperature In (degC)   Temperature Out (degC)   D-Exponent (Euc)   Total RPM [Surface + DHM] (1/min)   Stand Pipe Pressure (psi)   Pump flow (gpm)   TotalRotaryTime (h)   Bit Time (h)   Bit Run (m)   TotalCumRevOnBottom (Euc)   Sum All Pits (bbl)   ECD (ppg)
#-----------------------------------------------------------
~A
# ...
   4581.50	     28.39	      8040	     21.16	     13.50	     13.60	      27.7	      38.9	      0.83	       146	      3648	       457	     56.12	     23.58	    612.31	    221059	      1570.60	     13.94	
   4582.00	     33.40	      8376	     22.82	     13.50	     13.59	      27.7	      39.0	      0.80	       146	      3653	       457	     56.13	     23.59	    612.79	    221167	      1574.53	     13.94	
   4582.50	     35.56	      8172	     21.59	     13.50	     13.62	      27.7	      38.7	      0.81	       146	      3654	       457	     56.15	     23.61	    613.29	    221332	      1571.11	     13.94	
   4583.00	     28.53	      8383	     20.87	     13.50	     13.62	      27.7	      38.8	      0.85	       146	      3660	       457	     56.17	     23.63	    613.83	    221495	      1573.54	     13.94	
   4583.50	     27.17	      7941	     19.74	     13.50	     13.61	      27.7	      38.9	      0.83	       146	      3664	       457	     56.18	     23.65	    614.29	    221641	      1572.47	     13.94	
   4584.00	     33.32	      8233	     22.32	     13.50	     13.61	      27.8	      39.0	      0.79	       146	      3667	       457	     56.20	     23.66	    614.79	    221753	      1571.57	     13.94	
   4584.50	     37.24	      9626	     21.53	     13.50	     13.62	      27.7	      39.0	      0.79	       146	      3669	       457	     56.21	     23.67	    615.31	    221860	      1569.91	     13.94	
   4585.00	     33.09	      7952	     19.77	     13.50	     13.61	      27.7	      39.1	      0.83	       146	      3667	       457	     56.23	     23.69	    615.80	    222050	      1571.92	     13.94	
   4585.50	     28.38	      8720	     21.66	     13.50	     13.61	      27.8	      39.3	      0.84	       146	      3666	       457	     56.25	     23.71	    616.32	    222181	      1567.48	     13.94	
   4586.00	     30.59	      9365	     22.17	     13.50	     13.59	      27.8	      38.2	      0.81	       146	      3677	       457	     56.26	     23.73	    616.84	    222325	      1566.88	     13.94	
   4586.50	     31.02	      8090	     21.21	     13.50	     13.60	      27.8	      38.1	      0.84	       146	      3678	       457	     56.28	     23.74	    617.34	    222481	      1567.12	     13.94	
   4587.00	     32.92	      9163	     22.51	     13.50	     13.62	      27.8	      38.6	      0.80	       146	      3671	       457	     56.29	     23.76	    617.82	    222605	      1563.89	     13.95	
   4587.50	     45.43	      9250	     23.82	     13.50	     13.61	      27.8	      38.9	      0.75	       146	      3674	       457	     56.31	     23.77	    618.27	    222700	      1566.71	     13.94	
   4588.00	     42.81	      9231	     24.42	     13.50	     13.61	      27.8	      39.0	      0.81	       145	      3682	       457	     56.32	     23.78	    618.81	    222824	      1565.67	     13.94	
   4588.50	     33.63	      8592	     22.80	     13.50	     13.62	      27.8	      38.9	      0.82	       146	      3674	       457	     56.34	     23.80	    619.32	    222972	      1554.42	     13.94	
   4589.00	     35.97	      9267	     22.24	     13.50	     13.61	      27.8	      39.2	      0.79	       146	      3679	       457	     56.35	     23.81	    619.81	    223084	      1564.23	     13.94	
   4589.50	     37.22	     10618	     23.56	     13.50	     13.62	      27.8	      39.1	      0.80	       146	      3678	       457	     56.36	     23.82	    620.31	    223199	      1560.43	     13.95	
   4590.00	     28.70	      8138	     21.48	     13.50	     13.62	      27.8	      38.9	      0.92	       145	      3673	       457	     56.41	     23.87	    620.82	    223618	      1557.09	     13.94	
   4590.50	     17.44	      8648	     21.38	     13.50	     13.62	      27.8	      38.7	      0.96	       146	      3678	       457	     56.43	     23.89	    621.30	    223796	      1557.04	     13.95	
   4591.00	     19.43	      7452	     22.20	     13.50	     13.62	      27.8	      38.5	      0.87	       146	      3682	       457	     56.46	     23.92	    621.86	    224012	      1556.93	     13.95	
   4591.50	     26.80	      8152	     22.36	     13.50	     13.62	      27.8	      38.4	      0.84	       146	      3681	       457	     56.47	     23.93	    622.34	    224142	      1557.68	     13.95	
   4592.00	     30.96	      9522	     21.08	     13.50	     13.63	      27.8	      38.2	      0.81	       146	      3681	       457	     56.49	     23.95	    622.86	    224273	      1554.45	     13.95	
   4592.50	     33.73	      7238	     22.98	     13.50	     13.64	      27.8	      37.8	      0.83	       147	      3686	       457	     56.50	     23.97	    623.31	    224429	      1556.53	     13.95	
   4593.00	     29.21	     10170	     24.40	     13.50	     13.63	      27.8	      37.9	      0.87	       146	      3688	       457	     56.52	     23.98	    623.80	    224590	      1553.90	     13.95	
   4593.50	     27.01	      9253	     22.48	     13.50	     13.62	      27.8	      37.8	      0.84	       146	      3691	       457	     56.54	     24.00	    624.34	    224733	      1551.70	     13.95	
   4594.00	     29.81	      8261	     22.40	     13.50	     13.62	      27.7	      37.6	      0.88	       146	      3682	       457	     56.56	     24.02	    624.81	    224894	      1553.39	     13.95	
   4594.50	     24.86	      8237	     22.76	     13.50	     13.63	      27.7	      37.2	      0.87	       146	      3759	       465	     56.58	     24.05	    625.30	    225133	      1555.19	     13.96	
   4595.00	     33.55	      9842	     24.25	     13.50	     13.62	      27.7	      37.4	      0.78	       145	      3752	       458	     56.59	     24.06	    625.79	    225228	      1554.11	     13.95	
   4595.50	     42.01	      8617	     22.41	     13.50	     13.62	      27.7	      37.3	      0.83	       146	      3689	       457	     56.61	     24.08	    626.31	    225400	      1559.17	     13.95	
   4596.00	     31.12	      8380	     22.08	     13.50	     13.62	      27.7	      37.2	      0.86	       146	      3679	       457	     56.63	     24.10	    626.82	    225570	      1561.89	     13.95	
   4596.50	     27.56	      9433	     22.96	     13.50	     13.62	      27.7	      37.2	      0.84	       146	      3692	       457	     56.65	     24.11	    627.35	    225685	      1559.40	     13.95	
   4597.00	     30.30	      8796	     23.51	     13.50	     13.63	      27.7	      37.0	      0.84	       146	      3698	       458	     56.66	     24.13	    627.81	    225840	      1562.02	     13.95	
   4597.50	     31.68	      9818	     24.80	     13.50	     13.62	      27.7	      37.1	      0.84	       146	      3704	       458	     56.68	     24.14	    628.32	    225954	      1563.44	     13.95	
   4598.00	     30.36	     10077	     24.26	     13.50	     13.61	      27.7	      37.0	      0.87	       146	      3700	       457	     56.70	     24.16	    628.84	    226146	      1561.47	     13.95	
   4598.50	     25.86	      9655	     23.63	     13.50	     13.61	      27.7	      37.0	      0.87	       146	      3671	       455	     56.72	     24.18	    629.32	    226294	      1559.81	     13.95	
   4599.00	     25.43	      8323	     22.39	     13.50	     13.61	      27.7	      36.9	      0.87	       146	      3685	       457	     56.74	     24.20	    629.80	    226486	      1560.64	     13.95	
   4599.50	     24.21	      8382	     21.01	     13.50	     13.60	      27.7	      37.1	      0.95	       146	      3688	       457	     56.76	     24.22	    630.34	    226681	      1557.29	     13.95	
   4600.00	     21.66	      8881	     18.02	     13.50	     13.60	      27.9	      38.1	      0.84	       144	      3570	       449	     56.80	     24.26	    630.80	    227021	      1571.52	     13.94	
   4600.50	     52.36	      8665	     24.75	     13.50	     13.61	      27.9	      38.1	      0.80	       144	      3555	       450	     56.81	     24.27	    631.30	    227081	      1569.42	     13.94	
   4601.00	     48.36	      8914	     27.73	     13.50	     13.61	      27.9	      38.1	      0.86	       144	      3546	       450	     56.83	     24.29	    631.81	    227275	      1564.64	     13.94	
