~VERSION INFORMATION
VERS.    2.0:   CWLS LOG ASCII STANDARD - VERSION 2.0
WRAP.     NO:   ONE LINE PER STEP
~WELL INFORMATION BLOCK
#MNEM.UNIT      DATA                  DESCRIPTION OF MNEMONIC
#----   --------             ---------------
STRT.m  481.50                   :START DEPTH
STOP.m  5220.00                   :STOP DEPTH
STEP.m  0.50                   :STEP VALUE
NULL.  -999.25                   :NULL VALUE
COMP.                      :COMPANY NAME
WELL.   Pharos-1                   :WELL NAME
FLD .   BROWSE                   :FIELD NAME
LOC .                      :LOCATION
PROV.                      :PROVINCE
SRVC.   Geoservices                   :SERVICE COMPANY NAME
DATE.   07-11-2014 02:35:18                   :DATE
UWI .                      :UNIQUE WELL IDENTIFIER
~PARAMETER INFORMATION
~CURVE INFORMATION
#MNEM.UNIT       API CODE        CURVE DESCRIPTION
#----   -------- ------------------
 .m        :
ROP offline .m/h        :ROP offline
Surface Torque .lbf.ft        :Surface Torque
Weight On Bit Driller .klbm        :Weight On Bit Driller
Mud Weight In .ppg        :Mud Weight In
Mud Weight Out .ppg        :Mud Weight Out
Temperature In .degC        :Temperature In
Temperature Out .degC        :Temperature Out
D-Exponent .Euc        :D-Exponent
Total RPM [Surface + DHM] .1/min        :Total RPM [Surface + DHM]
Stand Pipe Pressure .psi        :Stand Pipe Pressure
Pump flow .gpm        :Pump flow
TotalRotaryTime .h        :TotalRotaryTime
Bit Time .h        :Bit Time
Bit Run .m        :Bit Run
TotalCumRevOnBottom .Euc        :TotalCumRevOnBottom
Sum All Pits .bbl        :Sum All Pits
ECD .ppg        :ECD
#
#-----------------------------------------------------------
#  (m)   ROP offline (m/h)   Surface Torque (lbf.ft)   Weight On Bit Driller (klbm)   Mud Weight In (ppg)   Mud Weight Out (ppg)   Temperature In (degC)   Temperature Out (degC)   D-Exponent (Euc)   Total RPM [Surface + DHM] (1/min)   Stand Pipe Pressure (psi)   Pump flow (gpm)   TotalRotaryTime (h)   Bit Time (h)   Bit Run (m)   TotalCumRevOnBottom (Euc)   Sum All Pits (bbl)   ECD (ppg)
#-----------------------------------------------------------
~A
# ...
   4881.50	     20.48	      9052	     21.41	     13.50	     13.51	      27.8	      38.8	      0.88	       139	      3661	       454	     68.06	     35.46	    912.43	    322542	      1482.81	     13.99	
   4882.00	     18.70	      7870	     17.68	     13.50	     13.52	      27.8	      38.8	      0.90	       140	      3644	       454	     68.10	     35.50	    912.92	    322861	      1480.88	     13.99	
   4882.50	     17.92	      9030	     21.19	     13.50	     13.51	      27.8	      38.8	      0.90	       140	      3652	       454	     68.12	     35.52	    913.41	    323031	      1481.38	     13.99	
   4883.00	     20.27	      8859	     21.45	     13.50	     13.51	      27.9	      38.8	      0.88	       140	      3658	       454	     68.15	     35.55	    913.90	    323278	      1479.29	     13.99	
   4883.50	     19.92	      9123	     22.17	     13.50	     13.51	      27.9	      38.7	      0.88	       139	      3654	       454	     68.17	     35.57	    914.43	    323466	      1481.78	     13.99	
   4884.00	     21.52	      8950	     20.83	     13.50	     13.51	      27.9	      38.8	      0.87	       140	      3652	       454	     68.19	     35.60	    914.92	    323687	      1480.13	     13.99	
   4884.50	     17.17	      9083	     21.04	     13.50	     13.50	      27.9	      38.8	      0.92	       140	      3649	       454	     68.22	     35.63	    915.43	    323915	      1478.86	     13.99	
   4885.00	     14.53	      8011	     18.96	     13.50	     13.50	      27.9	      38.8	      0.95	       140	      3644	       454	     68.27	     35.67	    915.86	    324302	      1480.29	     13.99	
   4885.50	     10.25	      7887	     19.23	     13.50	     13.51	      27.9	      38.7	      1.01	       140	      3643	       454	     68.32	     35.73	    916.47	    324750	      1480.73	     13.99	
   4886.00	      9.45	      8116	     18.99	     13.50	     13.50	      27.9	      38.8	      1.00	       139	      3631	       454	     68.38	     35.78	    916.96	    325246	      1481.85	     13.99	
   4886.50	     12.13	      5799	      4.02	     13.50	     13.53	      27.9	      38.8	      0.95	       138	      3740	       464	     68.43	     35.83	    917.41	    325621	      1501.01	     14.01	
   4887.00	     25.73	      9452	     14.45	     13.50	     13.53	      28.0	      38.8	      0.80	       138	      3749	       464	     68.43	     35.84	    917.93	    325692	      1495.47	     14.01	
   4887.50	     40.55	      9835	     20.11	     13.50	     13.53	      28.0	      38.8	      0.76	       141	      3750	       464	     68.45	     35.86	    918.44	    325854	      1488.62	     14.01	
   4888.00	     31.26	     11348	     20.25	     13.50	     13.54	      28.0	      38.9	      0.81	       141	      3757	       464	     68.47	     35.87	    918.91	    325981	      1481.48	     14.01	
   4888.50	     28.91	      9912	     19.68	     13.50	     13.54	      28.0	      38.8	      0.81	       141	      3763	       464	     68.49	     35.90	    919.46	    326179	      1477.64	     14.01	
   4889.00	     24.63	      9722	     20.62	     13.50	     13.54	      28.0	      38.8	      0.85	       141	      3768	       464	     68.51	     35.91	    919.96	    326328	      1475.10	     14.01	
   4889.50	     20.93	      8595	     18.11	     13.50	     13.53	      28.0	      38.9	      0.88	       142	      3657	       453	     68.55	     35.95	    920.44	    326639	      1473.34	     13.99	
   4890.00	     23.22	      9879	     19.44	     13.50	     13.54	      28.0	      38.8	      0.83	       142	      3616	       453	     68.56	     35.96	    920.90	    326724	      1469.92	     13.99	
   4890.50	     30.18	     10161	     21.27	     13.50	     13.54	      28.0	      38.8	      0.81	       141	      3604	       453	     68.57	     35.98	    921.45	    326873	      1473.97	     13.99	
   4891.00	     28.50	      9823	     20.46	     13.50	     13.54	      28.0	      38.9	      0.81	       141	      3606	       453	     68.59	     36.00	    921.88	    327035	      1474.62	     13.99	
   4891.50	     30.27	     10187	     20.00	     13.50	     13.48	      28.0	      37.2	      0.80	       141	      3605	       453	     68.61	     36.02	    922.45	    327203	      1473.80	     13.99	
   4892.00	     26.34	      9341	     17.99	     13.50	     13.47	      28.0	      38.3	      0.84	       142	      3603	       453	     68.64	     36.04	    922.91	    327417	      1478.87	     13.99	
   4892.50	     21.65	      9003	     20.19	     13.50	     13.47	      28.0	      38.5	      0.85	       142	      3602	       453	     68.66	     36.06	    923.38	    327600	      1475.14	     13.99	
   4893.00	     21.07	      9131	     19.72	     13.50	     13.48	      28.0	      38.5	      0.86	       142	      3602	       452	     68.68	     36.09	    923.93	    327819	      1474.05	     13.99	
   4893.50	     21.94	      9408	     19.04	     13.50	     13.48	      28.0	      38.5	      0.84	       142	      3598	       453	     68.71	     36.11	    924.46	    327996	      1475.37	     13.99	
   4894.00	     25.12	     10327	     19.15	     13.50	     13.48	      28.0	      38.5	      0.82	       142	      3599	       453	     68.72	     36.13	    924.94	    328145	      1470.96	     13.99	
   4894.50	     26.20	      9135	     21.04	     13.50	     13.48	      28.0	      38.4	      0.83	       142	      3593	       453	     68.74	     36.14	    925.38	    328301	      1473.32	     13.99	
   4895.00	     27.95	     10278	     22.25	     13.50	     13.48	      28.0	      38.4	      0.81	       142	      3600	       453	     68.76	     36.16	    925.90	    328445	      1472.49	     13.99	
   4895.50	     31.56	     10833	     22.14	     13.50	     13.49	      28.0	      38.3	      0.81	       141	      3606	       452	     68.77	     36.18	    926.42	    328570	      1473.38	     13.99	
   4896.00	     29.77	     10100	     20.62	     13.50	     13.49	      28.0	      38.4	      0.82	       142	      3598	       453	     68.79	     36.20	    926.87	    328740	      1472.26	     13.99	
   4896.50	     26.57	      9919	     21.55	     13.50	     13.49	      28.0	      38.3	      0.85	       141	      3610	       453	     68.81	     36.22	    927.45	    328917	      1471.38	     13.99	
   4897.00	     23.92	      9579	     21.29	     13.50	     13.49	      28.0	      38.2	      0.86	       142	      3603	       453	     68.83	     36.24	    927.94	    329094	      1469.16	     13.99	
   4897.50	     25.52	     10771	     20.73	     13.50	     13.49	      28.0	      38.3	      0.83	       142	      3603	       453	     68.85	     36.25	    928.43	    329234	      1470.94	     13.99	
   4898.00	     29.53	     10184	     20.51	     13.50	     13.49	      28.0	      38.2	      0.83	       142	      3601	       453	     68.87	     36.27	    928.92	    329387	      1471.88	     13.99	
   4898.50	     27.22	     10550	     21.70	     13.50	     13.49	      28.0	      38.2	      0.85	       141	      3607	       453	     68.89	     36.29	    929.41	    329547	      1472.77	     13.99	
   4899.00	     24.07	      9614	     21.02	     13.50	     13.49	      28.0	      38.2	      0.86	       141	      3610	       453	     68.91	     36.32	    929.96	    329772	      1470.81	     13.99	
   4899.50	     22.94	      9911	     21.71	     13.50	     13.50	      28.0	      38.2	      0.87	       141	      3605	       453	     68.93	     36.34	    930.39	    329928	      1473.33	     13.99	
   4900.00	     23.26	      9915	     20.90	     13.50	     13.49	      28.0	      38.2	      0.85	       142	      3613	       453	     68.95	     36.36	    930.91	    330100	      1471.05	     13.99	
   4900.50	     24.65	     10013	     19.46	     13.50	     13.49	      28.0	      38.2	      0.87	       142	      3616	       453	     68.98	     36.38	    931.46	    330308	      1470.47	     13.99	
   4901.00	     21.83	      9397	     20.20	     13.50	     13.49	      28.0	      38.1	      0.88	       142	      3612	       453	     69.00	     36.40	    931.91	    330502	      1472.89	     13.99	
