~VERSION INFORMATION
VERS.    2.0:   CWLS LOG ASCII STANDARD - VERSION 2.0
WRAP.     NO:   ONE LINE PER STEP
~WELL INFORMATION BLOCK
#MNEM.UNIT      DATA                  DESCRIPTION OF MNEMONIC
#----   --------             ---------------
STRT.m  481.50                   :START DEPTH
STOP.m  5220.00                   :STOP DEPTH
STEP.m  0.50                   :STEP VALUE
NULL.  -999.25                   :NULL VALUE
COMP.                      :COMPANY NAME
WELL.   Pharos-1                   :WELL NAME
FLD .   BROWSE                   :FIELD NAME
LOC .                      :LOCATION
PROV.                      :PROVINCE
SRVC.   Geoservices                   :SERVICE COMPANY NAME
DATE.   07-11-2014 02:35:18                   :DATE
UWI .                      :UNIQUE WELL IDENTIFIER
~PARAMETER INFORMATION
~CURVE INFORMATION
#MNEM.UNIT       API CODE        CURVE DESCRIPTION
#----   -------- ------------------
 .m        :
ROP offline .m/h        :ROP offline
Surface Torque .lbf.ft        :Surface Torque
Weight On Bit Driller .klbm        :Weight On Bit Driller
Mud Weight In .ppg        :Mud Weight In
Mud Weight Out .ppg        :Mud Weight Out
Temperature In .degC        :Temperature In
Temperature Out .degC        :Temperature Out
D-Exponent .Euc        :D-Exponent
Total RPM [Surface + DHM] .1/min        :Total RPM [Surface + DHM]
Stand Pipe Pressure .psi        :Stand Pipe Pressure
Pump flow .gpm        :Pump flow
TotalRotaryTime .h        :TotalRotaryTime
Bit Time .h        :Bit Time
Bit Run .m        :Bit Run
TotalCumRevOnBottom .Euc        :TotalCumRevOnBottom
Sum All Pits .bbl        :Sum All Pits
ECD .ppg        :ECD
#
#-----------------------------------------------------------
#  (m)   ROP offline (m/h)   Surface Torque (lbf.ft)   Weight On Bit Driller (klbm)   Mud Weight In (ppg)   Mud Weight Out (ppg)   Temperature In (degC)   Temperature Out (degC)   D-Exponent (Euc)   Total RPM [Surface + DHM] (1/min)   Stand Pipe Pressure (psi)   Pump flow (gpm)   TotalRotaryTime (h)   Bit Time (h)   Bit Run (m)   TotalCumRevOnBottom (Euc)   Sum All Pits (bbl)   ECD (ppg)
#-----------------------------------------------------------
~A
# ...
    801.50	     87.55	      2767	      5.89	      8.60	      0.25	      27.8	      33.9	      0.59	       116	      1825	       884	     22.36	      1.90	    262.68	     16127	      2138.99	      8.60	
    802.00	     66.51	       973	      5.42	      8.60	      0.25	      27.8	      33.9	      0.66	       116	      1775	       888	     22.36	      1.90	    263.20	     16182	      2136.22	      8.60	
    802.50	     45.36	      3601	      5.57	      8.60	      0.25	      27.8	      34.0	      0.73	       114	      1639	       882	     22.52	      1.92	    263.66	     16294	      2147.77	      8.60	
    803.00	     59.59	      3212	      5.14	      8.60	      0.25	      27.8	      34.0	      0.63	       115	      1709	       883	     22.53	      1.93	    264.15	     16329	      2147.15	      8.60	
    803.50	    113.41	      3722	      6.53	      8.60	      0.25	      27.8	      34.0	      0.49	       113	      1719	       882	     22.53	      1.93	    264.61	     16355	      2167.74	      8.60	
    804.00	    124.07	      5557	      8.61	      8.60	      0.25	      27.8	      33.8	      0.50	       112	      1727	       880	     22.54	      1.93	    265.15	     16382	      2164.31	      8.60	
    804.50	    109.76	      2145	      3.93	      8.60	      0.25	      27.8	      34.0	      0.54	       114	      1645	       885	     22.54	      1.94	    265.72	     16420	      2171.00	      8.60	
    805.00	    107.89	      3015	      5.60	      8.60	      0.25	      27.8	      33.9	      0.55	       115	      1583	       883	     22.55	      1.94	    266.18	     16447	      2175.53	      8.60	
    805.50	    102.72	      3227	      7.20	      8.60	      0.25	      27.8	      33.9	      0.61	       114	      1687	       887	     22.55	      1.95	    266.72	     16494	      2161.18	      8.60	
    806.00	     73.38	      1534	      5.13	      8.60	      0.25	      27.8	      33.8	      0.64	       114	      1623	       881	     22.56	      1.96	    267.22	     16559	      2161.69	      8.60	
    806.50	     71.75	       988	      4.62	      8.60	      0.25	      27.8	      34.1	      0.59	       114	      1611	       882	     22.57	      1.96	    267.66	     16600	      2193.29	      8.60	
    807.00	     96.27	      1826	      4.15	      8.60	      0.25	      27.8	      33.9	      0.54	       115	      1623	       886	     22.57	      1.97	    268.19	     16630	      2191.92	      8.60	
    807.50	    115.17	      1466	      4.64	      8.60	      0.25	      27.8	      34.0	      0.52	       115	      1618	       888	     22.58	      1.97	    268.67	     16657	      2200.20	      8.60	
    808.00	    123.41	      1904	      4.86	      8.60	      0.25	      27.8	      33.9	      0.51	       115	      1596	       883	     22.58	      1.98	    269.17	     16683	      2187.80	      8.60	
    808.50	    123.28	      1584	      5.03	      8.60	      0.25	      27.8	      34.0	      0.52	       115	      1629	       887	     22.58	      1.98	    269.66	     16710	      2180.95	      8.60	
    809.00	    129.01	       845	      3.17	      8.60	      0.25	      27.8	      33.9	      0.53	       117	      1583	       885	     22.59	      1.98	    270.25	     16737	      2173.88	      8.60	
    809.50	    114.12	      2559	      6.75	      8.60	      0.25	      27.8	      34.1	      0.57	       115	      1736	       898	     22.60	      1.99	    270.74	     16784	      2172.10	      8.60	
    810.00	     75.28	       718	      3.27	      8.60	      0.25	      27.8	      34.0	      0.60	       115	      1557	       882	     22.60	      2.00	    271.24	     16840	      2175.08	      8.60	
    810.50	     68.95	      1001	      4.96	      8.60	      0.25	      27.8	      34.0	      0.57	       114	      1568	       881	     22.61	      2.01	    271.66	     16880	      2166.17	      8.60	
    811.00	     83.28	      1108	      3.25	      8.60	      0.25	      27.8	      34.0	      0.56	       114	      1595	       882	     22.61	      2.01	    272.23	     16916	      2177.73	      8.60	
    811.50	     89.50	      2799	      7.06	      8.60	      0.25	      27.8	      33.9	      0.58	       113	      1577	       878	     22.62	      2.02	    272.61	     16954	      2181.24	      8.60	
    812.00	     71.27	       973	      4.69	      8.60	      0.25	      27.8	      34.0	      0.65	       116	      1580	       881	     22.63	      2.03	    273.18	     17024	      2163.36	      8.60	
    812.50	     50.81	      2104	      6.59	      8.60	      0.25	      27.8	      34.0	      0.64	       114	      1578	       877	     22.64	      2.04	    273.71	     17099	      2161.47	      8.60	
    813.00	     56.34	      1917	      5.74	      8.60	      0.25	      27.8	      34.1	      0.62	       114	      1614	       879	     22.65	      2.04	    274.16	     17146	      2170.40	      8.60	
    813.50	     57.88	       562	      2.62	      8.60	      0.25	      27.8	      34.0	      0.64	       121	      1522	       879	     22.66	      2.06	    274.70	     17231	      2169.33	      8.60	
    814.00	     60.61	       786	      3.58	      8.60	      0.25	      27.8	      34.0	      0.63	       123	      1586	       885	     22.67	      2.06	    275.22	     17276	      2171.11	      8.60	
    814.50	     88.03	       779	      2.83	      8.60	      0.25	      27.8	      34.1	      0.59	       124	      1584	       884	     22.67	      2.07	    275.73	     17310	      2173.62	      8.60	
    815.00	     77.24	      2089	      6.55	      8.60	      0.25	      27.8	      34.0	      0.64	       124	      1625	       880	     22.68	      2.08	    276.12	     17386	      2175.51	      8.60	
    815.50	     62.80	      2208	      6.59	      8.60	      0.25	      27.8	      34.2	      0.66	       122	      1591	       880	     22.69	      2.08	    276.65	     17435	      2167.55	      8.60	
    816.00	     76.52	      1557	      5.05	      8.60	      0.25	      27.8	      34.1	      0.59	       123	      1590	       883	     22.69	      2.09	    277.19	     17478	      2171.90	      8.60	
    816.50	     85.93	      2487	      7.22	      8.60	      0.25	      27.8	      34.2	      0.58	       122	      1531	       878	     22.70	      2.10	    277.63	     17521	      2185.49	      8.60	
    817.00	     80.46	      1116	      5.62	      8.60	      0.25	      27.8	      34.0	      0.62	       124	      1538	       882	     22.71	      2.10	    278.15	     17580	      2163.29	      8.60	
    817.50	     72.31	      2469	      5.71	      8.60	      0.25	      27.8	      34.1	      0.62	       123	      1626	       880	     22.71	      2.11	    278.70	     17625	      2140.67	      8.60	
    818.00	     87.56	      1123	      4.15	      8.60	      0.25	      27.8	      34.2	      0.58	       123	      1584	       881	     22.72	      2.11	    279.18	     17660	      2135.01	      8.60	
    818.50	    101.33	      2668	      7.19	      8.60	      0.25	      27.8	      34.0	      0.56	       123	      1603	       881	     22.72	      2.12	    279.70	     17697	      2125.85	      8.60	
    819.00	    103.50	      1885	      4.89	      8.60	      0.25	      27.8	      34.1	      0.56	       123	      1344	       881	     22.73	      2.12	    280.17	     17733	      2124.55	      8.60	
    819.50	     95.96	      2657	      5.63	      8.60	      0.25	      27.8	      34.0	      0.59	       122	      1456	       880	     22.73	      2.13	    280.71	     17774	      2128.33	      8.60	
    820.00	     87.27	      1188	      4.96	      8.60	      0.25	      27.8	      34.0	      0.60	       124	      1411	       884	     22.74	      2.14	    281.19	     17819	      2119.99	      8.60	
    820.50	     83.55	      4474	      8.56	      8.60	      0.25	      27.8	      34.0	      0.61	       120	      1504	       877	     22.75	      2.14	    281.74	     17863	      2120.37	      8.60	
    821.00	     88.11	      1701	      7.13	      8.60	      0.25	      27.8	      34.1	      0.61	       124	      1467	       878	     22.75	      2.15	    282.11	     17900	      2120.71	      8.60	
