~VERSION INFORMATION
VERS.    2.0:   CWLS LOG ASCII STANDARD - VERSION 2.0
WRAP.     NO:   ONE LINE PER STEP
~WELL INFORMATION BLOCK
#MNEM.UNIT      DATA                  DESCRIPTION OF MNEMONIC
#----   --------             ---------------
STRT.m  481.50                   :START DEPTH
STOP.m  5220.00                   :STOP DEPTH
STEP.m  0.50                   :STEP VALUE
NULL.  -999.25                   :NULL VALUE
COMP.                      :COMPANY NAME
WELL.   Pharos-1                   :WELL NAME
FLD .   BROWSE                   :FIELD NAME
LOC .                      :LOCATION
PROV.                      :PROVINCE
SRVC.   Geoservices                   :SERVICE COMPANY NAME
DATE.   07-11-2014 02:35:18                   :DATE
UWI .                      :UNIQUE WELL IDENTIFIER
~PARAMETER INFORMATION
~CURVE INFORMATION
#MNEM.UNIT       API CODE        CURVE DESCRIPTION
#----   -------- ------------------
 .m        :
ROP offline .m/h        :ROP offline
Surface Torque .lbf.ft        :Surface Torque
Weight On Bit Driller .klbm        :Weight On Bit Driller
Mud Weight In .ppg        :Mud Weight In
Mud Weight Out .ppg        :Mud Weight Out
Temperature In .degC        :Temperature In
Temperature Out .degC        :Temperature Out
D-Exponent .Euc        :D-Exponent
Total RPM [Surface + DHM] .1/min        :Total RPM [Surface + DHM]
Stand Pipe Pressure .psi        :Stand Pipe Pressure
Pump flow .gpm        :Pump flow
TotalRotaryTime .h        :TotalRotaryTime
Bit Time .h        :Bit Time
Bit Run .m        :Bit Run
TotalCumRevOnBottom .Euc        :TotalCumRevOnBottom
Sum All Pits .bbl        :Sum All Pits
ECD .ppg        :ECD
#
#-----------------------------------------------------------
#  (m)   ROP offline (m/h)   Surface Torque (lbf.ft)   Weight On Bit Driller (klbm)   Mud Weight In (ppg)   Mud Weight Out (ppg)   Temperature In (degC)   Temperature Out (degC)   D-Exponent (Euc)   Total RPM [Surface + DHM] (1/min)   Stand Pipe Pressure (psi)   Pump flow (gpm)   TotalRotaryTime (h)   Bit Time (h)   Bit Run (m)   TotalCumRevOnBottom (Euc)   Sum All Pits (bbl)   ECD (ppg)
#-----------------------------------------------------------
~A
# ...
   1421.50	     97.63	      6837	      4.34	      8.60	      0.25	      27.8	      35.8	      0.64	       166	      2676	      1057	     33.69	     10.24	    882.49	     88309	      2203.64	      8.61	
   1422.00	    114.51	      8660	      4.71	      8.60	      0.25	      27.8	      35.9	      0.61	       166	      2777	      1058	     33.69	     10.25	    882.99	     88347	      2199.14	      8.61	
   1422.50	    129.99	      6120	      4.82	      8.60	      0.25	      27.8	      35.9	      0.60	       167	      2682	      1059	     33.70	     10.25	    883.54	     88386	      2194.31	      8.61	
   1423.00	    113.78	      9787	      6.63	      8.60	      0.25	      27.8	      36.0	      0.64	       164	      2580	      1052	     33.70	     10.26	    883.97	     88440	      2201.83	      8.61	
   1423.50	     86.94	      5438	      3.52	      8.60	      0.25	      27.8	      35.8	      0.68	       166	      2467	      1051	     33.71	     10.26	    884.50	     88503	      2194.25	      8.61	
   1424.00	     82.71	     11927	      9.01	      8.60	      0.25	      27.8	      35.9	      0.69	       163	      2496	      1042	     33.71	     10.27	    884.93	     88558	      2183.66	      8.61	
   1424.50	     88.21	     12540	      9.58	      8.60	      0.25	      27.8	      35.9	      0.72	       163	      2551	      1047	     33.72	     10.27	    885.45	     88620	      2175.38	      8.61	
   1425.00	     84.54	      8577	     10.03	      8.60	      0.25	      27.8	      35.8	      0.72	       165	      2563	      1047	     33.73	     10.28	    885.94	     88675	      2165.60	      8.61	
   1425.50	     87.05	      7399	      8.90	      8.60	      0.25	      27.8	      35.8	      0.72	       166	      2535	      1053	     33.73	     10.29	    886.49	     88732	      2153.76	      8.61	
   1426.00	     85.17	      7228	      9.83	      8.60	      0.25	      27.8	      35.7	      0.69	       164	      2571	      1045	     33.74	     10.29	    886.94	     88795	      2133.85	      8.61	
   1426.50	     90.88	      8046	      9.01	      8.60	      0.25	      27.8	      35.8	      0.63	       166	      2555	      1052	     33.74	     10.30	    887.46	     88838	      2140.24	      8.61	
   1427.00	    109.79	      2997	      5.69	      8.60	      0.25	      27.8	      35.8	      0.62	       163	      2050	      1042	     33.75	     10.30	    887.92	     88877	      2146.97	      8.61	
   1427.50	    112.31	      5303	      6.25	      8.60	      0.25	      27.8	      35.9	      0.65	       162	      2002	      1028	     33.75	     10.30	    888.45	     88925	      2157.10	      8.61	
   1428.00	    106.28	     10790	      8.54	      8.60	      0.25	      27.8	      35.7	      0.69	       162	      2058	      1035	     33.76	     10.31	    888.97	     88974	      2165.46	      8.61	
   1428.50	     98.65	     12476	     11.21	      8.60	      0.25	      27.8	      35.9	      0.69	       163	      2182	      1040	     33.76	     10.32	    889.49	     89025	      2179.35	      8.61	
   1429.00	     85.20	      8165	      9.11	      8.60	      0.25	      27.8	      35.8	      0.72	       160	      2147	      1036	     33.77	     10.32	    889.99	     89090	      2175.69	      8.61	
   1429.50	     58.07	      7542	      8.07	      8.60	      0.25	      27.8	      35.9	      0.78	       163	      2125	      1037	     33.78	     10.33	    890.46	     89198	      2186.12	      8.61	
   1430.00	     45.99	      5820	      7.39	      8.60	      0.25	      27.8	      35.9	      0.81	       164	      2178	      1039	     33.79	     10.34	    890.98	     89310	      2198.37	      8.61	
   1430.50	     46.65	      6524	      7.77	      8.60	      0.25	      27.8	      35.8	      0.80	       166	      2409	      1043	     33.80	     10.35	    891.44	     89413	      2207.59	      8.61	
   1431.00	     62.73	      7003	      7.07	      8.60	      0.25	      27.8	      35.8	      0.74	       164	      2570	      1047	     33.81	     10.36	    891.95	     89473	      2212.39	      8.61	
   1431.50	     82.74	      8033	      7.38	      8.60	      0.25	      27.8	      35.9	      0.68	       165	      2650	      1052	     33.81	     10.37	    892.40	     89531	      2217.06	      8.61	
   1432.00	     85.38	      5311	      5.13	      8.60	      0.25	      27.8	      35.9	      0.68	       167	      2646	      1055	     33.82	     10.37	    893.00	     89591	      2206.11	      8.61	
   1432.50	     89.32	     10145	      8.62	      8.60	      0.25	      27.8	      35.9	      0.67	       163	      2780	      1053	     33.83	     10.38	    893.43	     89646	      2207.28	      8.61	
   1433.00	     84.29	      6583	      5.66	      8.60	      0.25	      27.8	      35.8	      0.66	       164	      2610	      1048	     33.83	     10.38	    893.95	     89710	      2210.56	      8.61	
   1433.50	     85.93	      2616	      4.73	      8.60	      0.25	      27.8	      35.8	      0.65	       165	      2651	      1056	     33.84	     10.39	    894.54	     89762	      2210.88	      8.61	
   1434.00	     92.85	      9691	      7.27	      8.60	      0.25	      27.8	      35.8	      0.64	       164	      2741	      1052	     33.84	     10.40	    894.97	     89814	      2201.37	      8.61	
   1434.50	     86.80	      4140	      6.48	      8.60	      0.25	      27.8	      35.9	      0.65	       165	      2648	      1058	     33.85	     10.40	    895.51	     89877	      2189.79	      8.61	
   1435.00	     85.12	     10623	      5.97	      8.60	      0.25	      27.8	      35.8	      0.64	       164	      2623	      1051	     33.85	     10.41	    895.93	     89927	      2183.65	      8.61	
   1435.50	     87.24	      2557	      5.72	      8.60	      0.25	      27.8	      35.9	      0.63	       165	      2672	      1053	     33.86	     10.41	    896.47	     89990	      2184.69	      8.61	
   1436.00	     88.30	      5252	      4.30	      8.60	      0.25	      27.8	      35.8	      0.64	       165	      2684	      1055	     33.87	     10.42	    896.94	     90039	      2177.85	      8.61	
   1436.50	     82.08	      4282	      5.77	      8.60	      0.25	      27.8	      35.8	      0.65	       166	      2791	      1053	     33.87	     10.42	    897.40	     90105	      2167.20	      8.61	
   1437.00	     81.29	      7223	      6.46	      8.60	      0.25	      27.8	      35.8	      0.65	       164	      2762	      1055	     33.88	     10.43	    897.99	     90166	      2154.29	      8.61	
   1437.50	     84.71	      9269	      4.30	      8.60	      0.25	      27.8	      35.8	      0.64	       165	      2847	      1062	     33.88	     10.44	    898.53	     90232	      2142.14	      8.61	
   1438.00	     82.78	      7275	      5.78	      8.60	      0.25	      27.8	      35.8	      0.62	       164	      2867	      1053	     33.89	     10.44	    898.93	     90287	      2135.95	      8.61	
   1438.50	     79.57	      6824	      4.69	      8.60	      0.25	      27.8	      35.7	      0.70	       166	      2906	      1058	     33.90	     10.45	    899.45	     90389	      2125.98	      8.61	
   1439.00	     49.46	      7189	      5.49	      8.60	      0.25	      27.8	      35.8	      0.82	       165	      2975	      1059	     33.91	     10.47	    899.96	     90507	      2138.09	      8.61	
   1439.50	     24.75	      8410	      3.50	      8.60	      0.25	      27.8	      35.8	      0.79	       165	      2656	      1053	     34.10	     10.50	    900.44	     90811	      2132.75	      8.61	
   1440.00	     24.94	      8069	      2.77	      8.60	      0.25	      27.8	      35.8	      0.77	       165	      2611	      1053	     34.12	     10.52	    900.99	     91027	      2131.56	      8.61	
   1440.50	     27.83	      8675	      2.95	      8.60	      0.25	      27.8	      35.8	      0.72	       166	      2710	      1052	     34.13	     10.53	    901.39	     91151	      2105.09	      8.61	
   1441.00	     38.25	      6110	      2.32	      8.60	      0.25	      27.8	      35.7	      0.69	       166	      2652	      1055	     34.14	     10.55	    901.97	     91300	      2132.23	      8.61	
