~VERSION INFORMATION
VERS.    2.0:   CWLS LOG ASCII STANDARD - VERSION 2.0
WRAP.     NO:   ONE LINE PER STEP
~WELL INFORMATION BLOCK
#MNEM.UNIT      DATA                  DESCRIPTION OF MNEMONIC
#----   --------             ---------------
STRT.m  481.50                   :START DEPTH
STOP.m  5220.00                   :STOP DEPTH
STEP.m  0.50                   :STEP VALUE
NULL.  -999.25                   :NULL VALUE
COMP.                      :COMPANY NAME
WELL.   Pharos-1                   :WELL NAME
FLD .   BROWSE                   :FIELD NAME
LOC .                      :LOCATION
PROV.                      :PROVINCE
SRVC.   Geoservices                   :SERVICE COMPANY NAME
DATE.   07-11-2014 02:35:18                   :DATE
UWI .                      :UNIQUE WELL IDENTIFIER
~PARAMETER INFORMATION
~CURVE INFORMATION
#MNEM.UNIT       API CODE        CURVE DESCRIPTION
#----   -------- ------------------
 .m        :
ROP offline .m/h        :ROP offline
Surface Torque .lbf.ft        :Surface Torque
Weight On Bit Driller .klbm        :Weight On Bit Driller
Mud Weight In .ppg        :Mud Weight In
Mud Weight Out .ppg        :Mud Weight Out
Temperature In .degC        :Temperature In
Temperature Out .degC        :Temperature Out
D-Exponent .Euc        :D-Exponent
Total RPM [Surface + DHM] .1/min        :Total RPM [Surface + DHM]
Stand Pipe Pressure .psi        :Stand Pipe Pressure
Pump flow .gpm        :Pump flow
TotalRotaryTime .h        :TotalRotaryTime
Bit Time .h        :Bit Time
Bit Run .m        :Bit Run
TotalCumRevOnBottom .Euc        :TotalCumRevOnBottom
Sum All Pits .bbl        :Sum All Pits
ECD .ppg        :ECD
#
#-----------------------------------------------------------
#  (m)   ROP offline (m/h)   Surface Torque (lbf.ft)   Weight On Bit Driller (klbm)   Mud Weight In (ppg)   Mud Weight Out (ppg)   Temperature In (degC)   Temperature Out (degC)   D-Exponent (Euc)   Total RPM [Surface + DHM] (1/min)   Stand Pipe Pressure (psi)   Pump flow (gpm)   TotalRotaryTime (h)   Bit Time (h)   Bit Run (m)   TotalCumRevOnBottom (Euc)   Sum All Pits (bbl)   ECD (ppg)
#-----------------------------------------------------------
~A
# ...
   2361.50	     44.80	      8575	     21.94	      8.60	      8.90	      28.1	      33.2	      1.25	       217	      3898	      1105	     75.75	      1.80	     92.37	     31888	      1830.07	      8.71	
   2362.00	     42.90	     10734	     24.84	      8.60	      8.86	      28.1	      32.8	      1.23	       218	      3974	      1104	     75.76	      1.81	     92.84	     32035	      1807.37	      8.71	
   2362.50	     45.03	     11163	     28.40	      8.60	      8.83	      28.1	      32.5	      1.26	       215	      3962	      1101	     75.78	      1.82	     93.36	     32183	      1775.56	      8.71	
   2363.00	     40.14	     11933	     29.34	      8.60	      8.79	      28.0	      32.2	      1.35	       215	      3928	      1102	     75.79	      1.84	     93.90	     32391	      1744.31	      8.71	
   2363.50	     30.22	      9275	     23.47	      8.60	      8.76	      27.8	      31.8	      1.37	       217	      3924	      1106	     75.81	      1.85	     94.38	     32615	      1725.79	      8.71	
   2364.00	     29.20	      8704	     22.14	      8.60	      8.72	      27.5	      31.7	      1.34	       215	      3905	      1105	     75.83	      1.87	     94.83	     32824	      1667.25	      8.71	
   2364.50	     36.08	      9451	     22.61	      8.60	      8.72	      27.4	      31.7	      1.29	       217	      3929	      1104	     75.84	      1.88	     95.33	     32979	      1645.65	      8.71	
   2365.00	     41.71	      7651	     22.56	      8.60	      8.72	      27.3	      31.7	      1.23	       216	      3804	      1105	     75.85	      1.89	     95.80	     33123	      1640.17	      8.71	
   2365.50	     49.62	     14663	     30.83	      8.60	      8.73	      27.2	      31.6	      1.21	       216	      3971	      1102	     75.86	      1.90	     96.40	     33241	      1642.13	      8.71	
   2366.00	     47.12	     13829	     29.29	      8.60	      8.76	      27.0	      31.7	      1.27	       216	      3945	      1104	     75.87	      1.92	     96.94	     33447	      1637.66	      8.71	
   2366.50	     32.92	     14105	     31.74	      8.60	      8.76	      26.9	      31.7	      1.34	       216	      4012	      1100	     75.89	      1.93	     97.36	     33616	      1656.96	      8.71	
   2367.00	     31.93	     11096	     26.23	      8.60	      8.76	      26.8	      31.9	      1.36	       217	      3903	      1105	     75.91	      1.95	     97.92	     33868	      1671.63	      8.71	
   2367.50	     27.61	      5689	     15.03	      8.60	      8.77	      26.7	      32.0	      1.32	       216	      3791	      1108	     75.92	      1.97	     98.34	     34106	      1699.93	      8.71	
   2368.00	     44.71	     13529	     22.06	      8.60	      8.78	      26.7	      31.8	      1.18	       216	      3909	      1102	     75.93	      1.97	     98.84	     34196	      1701.43	      8.71	
   2368.50	     61.44	     15145	     27.49	      8.60	      8.80	      26.6	      31.9	      1.16	       216	      4022	      1098	     75.94	      1.98	     99.38	     34322	      1715.73	      8.71	
   2369.00	     46.80	     12206	     27.82	      8.60	      8.81	      26.6	      32.0	      1.26	       217	      3924	      1105	     75.96	      2.00	     99.88	     34506	      1725.40	      8.71	
   2369.50	     33.30	     10018	     22.69	      8.60	      8.80	      26.5	      32.0	      1.29	       215	      3992	      1102	     75.97	      2.02	    100.32	     34722	      1745.24	      8.71	
   2370.00	     32.02	      9422	     20.85	      8.60	      8.81	      26.5	      31.9	      1.26	       217	      3947	      1101	     75.99	      2.03	    100.88	     34917	      1766.90	      8.71	
   2370.50	     29.82	     10067	     21.81	      8.60	      8.81	      26.4	      32.0	      1.28	       216	      4011	      1101	     76.01	      2.05	    101.40	     35217	      1799.41	      8.71	
   2371.00	     22.86	      8178	     21.38	      8.60	      8.81	      26.4	      32.2	      1.36	       216	      4057	      1100	     76.03	      2.07	    101.88	     35491	      1824.33	      8.71	
   2371.50	     17.45	      9557	     14.22	      8.60	      8.82	      26.5	      33.8	      1.38	       211	      3874	      1097	     76.28	      2.11	    102.35	     35987	      1905.93	      8.71	
   2372.00	     19.42	     10959	     22.56	      8.60	      8.79	      26.5	      33.9	      1.34	       210	      3997	      1096	     76.30	      2.13	    102.83	     36183	      1897.63	      8.71	
   2372.50	     26.24	      9088	     21.66	      8.60	      8.80	      26.5	      34.1	      1.31	       212	      3964	      1098	     76.32	      2.15	    103.37	     36432	      1872.17	      8.71	
   2373.00	     27.39	     10679	     24.92	      8.60	      8.82	      26.5	      34.0	      1.34	       212	      3966	      1096	     76.33	      2.17	    103.86	     36656	      1774.02	      8.71	
   2373.50	     26.99	     12539	     27.94	      8.60	      8.82	      26.5	      33.9	      1.34	       210	      3976	      1096	     76.35	      2.18	    104.36	     36874	      1811.64	      8.71	
   2374.00	     32.40	     12391	     26.10	      8.60	      8.82	      26.5	      33.5	      1.28	       213	      3957	      1098	     76.37	      2.20	    104.90	     37061	      1787.20	      8.71	
   2374.50	     34.68	      8248	     20.82	      8.60	      8.78	      26.5	      32.7	      1.27	       213	      3801	      1100	     76.39	      2.22	    105.43	     37306	      1759.79	      8.71	
   2375.00	     32.48	      8214	     19.91	      8.60	      8.73	      26.5	      32.6	      1.28	       212	      3859	      1099	     76.40	      2.23	    105.85	     37472	      1743.45	      8.71	
   2375.50	     36.16	      9699	     26.20	      8.60	      8.70	      26.5	      32.1	      1.29	       213	      3880	      1099	     76.41	      2.25	    106.43	     37685	      1712.01	      8.71	
   2376.00	     32.52	     10246	     25.91	      8.60	      8.70	      26.5	      31.9	      1.33	       212	      3839	      1097	     76.43	      2.26	    106.84	     37883	      1693.94	      8.71	
   2376.50	     29.23	     10212	     27.51	      8.60	      8.70	      26.5	      32.0	      1.36	       213	      3885	      1098	     76.45	      2.28	    107.37	     38071	      1685.39	      8.71	
   2377.00	     30.08	      9099	     27.59	      8.60	      8.71	      26.5	      32.0	      1.36	       213	      3847	      1099	     76.46	      2.30	    107.84	     38304	      1698.14	      8.71	
   2377.50	     32.21	     11110	     25.38	      8.60	      8.72	      26.5	      32.1	      1.36	       212	      3787	      1097	     76.48	      2.31	    108.37	     38544	      1720.62	      8.71	
   2378.00	     30.64	     12137	     30.16	      8.60	      8.72	      26.5	      32.1	      1.37	       211	      3922	      1097	     76.49	      2.33	    108.88	     38700	      1728.27	      8.71	
   2378.50	     31.30	     11131	     29.41	      8.60	      8.74	      26.5	      32.0	      1.42	       212	      3904	      1097	     76.51	      2.34	    109.36	     38894	      1741.05	      8.71	
   2379.00	     32.34	     12481	     45.33	      8.60	      8.75	      26.5	      31.9	      1.51	       211	      3951	      1097	     76.53	      2.36	    109.90	     39102	      1752.05	      8.71	
   2379.50	     32.32	     12465	     45.53	      8.60	      8.71	      26.5	      32.3	      1.56	       213	      3990	      1096	     76.54	      2.37	    110.36	     39293	      1764.40	      8.71	
   2380.00	     31.37	     12339	     45.51	      8.60	      8.75	      26.8	      31.9	      1.56	       212	      3977	      1096	     76.56	      2.39	    110.87	     39508	      1780.39	      8.71	
   2380.50	     31.99	     10831	     44.07	      8.60	      8.74	      27.3	      32.0	      1.52	       211	      3970	      1097	     76.57	      2.40	    111.37	     39678	      1786.87	      8.71	
   2381.00	     30.33	      4526	     23.88	      8.60	      8.76	      27.6	      32.0	      1.52	       213	      3593	      1101	     76.60	      2.44	    111.84	     40075	      1813.23	      8.71	
