~VERSION INFORMATION
VERS.    2.0:   CWLS LOG ASCII STANDARD - VERSION 2.0
WRAP.     NO:   ONE LINE PER STEP
~WELL INFORMATION BLOCK
#MNEM.UNIT      DATA                  DESCRIPTION OF MNEMONIC
#----   --------             ---------------
STRT.m  481.50                   :START DEPTH
STOP.m  5220.00                   :STOP DEPTH
STEP.m  0.50                   :STEP VALUE
NULL.  -999.25                   :NULL VALUE
COMP.                      :COMPANY NAME
WELL.   Pharos-1                   :WELL NAME
FLD .   BROWSE                   :FIELD NAME
LOC .                      :LOCATION
PROV.                      :PROVINCE
SRVC.   Geoservices                   :SERVICE COMPANY NAME
DATE.   07-11-2014 02:35:18                   :DATE
UWI .                      :UNIQUE WELL IDENTIFIER
~PARAMETER INFORMATION
~CURVE INFORMATION
#MNEM.UNIT       API CODE        CURVE DESCRIPTION
#----   -------- ------------------
 .m        :
ROP offline .m/h        :ROP offline
Surface Torque .lbf.ft        :Surface Torque
Weight On Bit Driller .klbm        :Weight On Bit Driller
Mud Weight In .ppg        :Mud Weight In
Mud Weight Out .ppg        :Mud Weight Out
Temperature In .degC        :Temperature In
Temperature Out .degC        :Temperature Out
D-Exponent .Euc        :D-Exponent
Total RPM [Surface + DHM] .1/min        :Total RPM [Surface + DHM]
Stand Pipe Pressure .psi        :Stand Pipe Pressure
Pump flow .gpm        :Pump flow
TotalRotaryTime .h        :TotalRotaryTime
Bit Time .h        :Bit Time
Bit Run .m        :Bit Run
TotalCumRevOnBottom .Euc        :TotalCumRevOnBottom
Sum All Pits .bbl        :Sum All Pits
ECD .ppg        :ECD
#
#-----------------------------------------------------------
#  (m)   ROP offline (m/h)   Surface Torque (lbf.ft)   Weight On Bit Driller (klbm)   Mud Weight In (ppg)   Mud Weight Out (ppg)   Temperature In (degC)   Temperature Out (degC)   D-Exponent (Euc)   Total RPM [Surface + DHM] (1/min)   Stand Pipe Pressure (psi)   Pump flow (gpm)   TotalRotaryTime (h)   Bit Time (h)   Bit Run (m)   TotalCumRevOnBottom (Euc)   Sum All Pits (bbl)   ECD (ppg)
#-----------------------------------------------------------
~A
# ...
   4261.50	     26.99	     10100	     15.36	     13.50	     13.59	      27.6	      37.9	      0.79	       149	      3442	       452	     41.10	      8.65	    292.12	     89380	      1659.01	     14.02	
   4262.00	     26.35	      9561	     16.57	     13.50	     13.59	      27.6	      38.0	      0.79	       150	      3440	       452	     41.12	      8.67	    292.61	     89555	      1659.13	     14.02	
   4262.50	     26.30	     10298	     17.34	     13.50	     13.59	      27.6	      37.9	      0.79	       150	      3446	       451	     41.14	      8.69	    293.10	     89710	      1656.22	     14.01	
   4263.00	     25.40	      9434	     15.84	     13.50	     13.60	      27.6	      37.9	      0.81	       150	      3452	       451	     41.16	      8.71	    293.63	     89924	      1662.33	     14.02	
   4263.50	     23.34	      9948	     17.30	     13.50	     13.59	      27.6	      37.9	      0.82	       150	      3452	       451	     41.18	      8.73	    294.11	     90081	      1664.34	     14.02	
   4264.00	     21.91	      8622	     14.26	     13.50	     13.59	      27.6	      37.9	      0.82	       150	      3456	       452	     41.21	      8.76	    294.62	     90349	      1659.75	     14.01	
   4264.50	     20.49	      8838	     15.24	     13.50	     13.60	      27.6	      37.8	      0.81	       150	      3448	       451	     41.23	      8.78	    295.12	     90545	      1656.77	     14.01	
   4265.00	     22.66	      9698	     16.60	     13.50	     13.60	      27.6	      37.8	      0.79	       150	      3445	       452	     41.25	      8.80	    295.64	     90717	      1659.65	     14.01	
   4265.50	     25.17	      9003	     15.80	     13.50	     13.60	      27.6	      37.7	      0.78	       150	      3450	       452	     41.27	      8.82	    296.12	     90908	      1663.88	     14.02	
   4266.00	     26.99	      9822	     16.29	     13.50	     13.60	      27.6	      37.7	      0.78	       150	      3449	       452	     41.29	      8.84	    296.64	     91081	      1658.75	     14.02	
   4266.50	     26.01	      9254	     15.32	     13.50	     13.60	      27.6	      37.6	      0.79	       150	      3464	       452	     41.31	      8.86	    297.11	     91268	      1664.53	     14.01	
   4267.00	     23.02	      8930	     15.47	     13.50	     13.60	      27.6	      37.6	      0.81	       150	      3447	       452	     41.33	      8.88	    297.59	     91466	      1654.03	     14.01	
   4267.50	     22.44	      9507	     15.75	     13.50	     13.60	      27.6	      37.5	      0.81	       150	      3463	       452	     41.35	      8.91	    298.13	     91659	      1660.32	     14.02	
   4268.00	     24.17	      9654	     16.31	     13.50	     13.60	      27.6	      37.6	      0.81	       150	      3434	       452	     41.37	      8.93	    298.62	     91854	      1659.21	     14.01	
   4268.50	     24.32	      9612	     16.70	     13.50	     13.60	      27.6	      37.6	      0.81	       150	      3444	       451	     41.39	      8.95	    299.12	     92034	      1664.99	     14.01	
   4269.00	     25.78	      9771	     18.13	     13.50	     13.60	      27.6	      37.5	      0.81	       150	      3444	       452	     41.41	      8.96	    299.61	     92187	      1658.66	     14.02	
   4269.50	     23.99	      9225	     16.64	     13.50	     13.60	      27.6	      37.6	      0.83	       151	      3448	       452	     41.44	      8.99	    300.11	     92415	      1654.73	     14.02	
   4270.00	     22.62	      9072	     15.45	     13.50	     13.60	      27.6	      37.6	      0.82	       150	      3451	       452	     41.46	      9.01	    300.61	     92603	      1660.51	     14.01	
   4270.50	     23.94	      9707	     17.39	     13.50	     13.60	      27.6	      37.7	      0.81	       150	      3445	       452	     41.48	      9.03	    301.10	     92770	      1663.41	     14.02	
   4271.00	     25.10	      9662	     17.14	     13.50	     13.60	      27.6	      37.7	      0.81	       150	      3448	       452	     41.50	      9.05	    301.63	     92978	      1665.27	     14.01	
   4271.50	     23.42	      8955	     14.81	     13.50	     13.60	      27.6	      37.7	      0.84	       150	      3445	       452	     41.53	      9.08	    302.15	     93224	      1657.63	     14.01	
   4272.00	     20.21	      9425	     17.08	     13.50	     13.60	      27.6	      37.6	      0.84	       150	      3441	       451	     41.54	      9.10	    302.64	     93392	      1656.95	     14.02	
   4272.50	     20.64	      9118	     15.32	     13.50	     13.60	      27.6	      37.6	      0.83	       150	      3430	       449	     41.57	      9.13	    303.11	     93649	      1663.02	     14.01	
   4273.00	     19.41	      8883	     14.84	     13.50	     13.60	      27.6	      37.6	      0.83	       150	      3442	       451	     41.60	      9.15	    303.61	     93877	      1663.57	     14.01	
   4273.50	     19.16	      8869	     15.37	     13.50	     13.60	      27.6	      37.5	      0.83	       150	      3455	       451	     41.62	      9.18	    304.14	     94118	      1664.53	     14.01	
   4274.00	     19.57	      8759	     15.58	     13.50	     13.50	      27.6	      37.5	      0.84	       150	      3441	       451	     41.65	      9.20	    304.60	     94356	      1652.90	     14.01	
   4274.50	     19.13	      8328	     15.24	     13.50	     13.50	      27.6	      37.5	      0.84	       150	      3427	       450	     41.68	      9.23	    305.07	     94618	      1655.23	     14.01	
   4275.00	     20.63	      8597	     15.43	     13.50	     13.50	      27.6	      37.5	      0.83	       150	      3440	       451	     41.71	      9.26	    305.60	     94841	      1652.45	     14.01	
   4275.50	     20.29	      8122	     14.97	     13.50	     13.50	      27.6	      37.5	      0.84	       150	      3447	       451	     41.73	      9.28	    306.14	     95064	      1665.34	     14.01	
   4276.00	     18.66	      9031	     14.67	     13.50	     13.50	      27.6	      37.6	      0.85	       150	      3452	       451	     41.76	      9.31	    306.58	     95317	      1664.62	     14.01	
   4276.50	     17.96	      8979	     16.52	     13.50	     13.50	      27.6	      37.6	      0.83	       150	      3453	       451	     41.78	      9.33	    307.16	     95512	      1666.97	     14.01	
   4277.00	     20.25	      7385	     13.53	     13.50	     13.50	      27.6	      37.5	      0.83	       150	      3434	       452	     41.81	      9.37	    307.61	     95823	      1662.45	     14.02	
   4277.50	     19.44	      8379	     16.17	     13.50	     13.50	      27.6	      37.5	      0.85	       150	      3445	       452	     41.83	      9.39	    308.11	     96001	      1673.47	     14.02	
   4278.00	     15.97	      7928	     14.68	     13.50	     13.50	      27.6	      37.6	      0.87	       151	      3430	       452	     41.87	      9.43	    308.64	     96359	      1666.55	     14.02	
   4278.50	     15.53	      8198	     15.27	     13.50	     13.50	      27.6	      37.5	      0.84	       150	      3434	       452	     41.90	      9.45	    309.11	     96595	      1669.85	     14.02	
   4279.00	     19.46	      9069	     19.17	     13.50	     13.50	      27.6	      37.5	      0.84	       150	      3446	       452	     41.92	      9.47	    309.65	     96750	      1650.45	     14.02	
   4279.50	     16.64	      6498	     13.81	     13.50	     13.45	      27.6	      37.1	      0.90	       151	      3417	       452	     41.98	      9.53	    310.17	     97313	      1656.91	     14.02	
   4280.00	     11.94	      7587	      4.97	     13.50	     13.47	      27.6	      37.4	      0.78	       149	      3435	       452	     42.05	      9.60	    310.65	     97893	      1659.40	     14.01	
   4280.50	     19.41	      9107	      9.68	     13.50	     13.51	      27.6	      37.5	      0.69	       149	      3453	       452	     42.07	      9.62	    311.18	     98084	      1646.73	     14.02	
   4281.00	     23.92	      8932	     12.58	     13.50	     13.51	      27.6	      37.5	      0.73	       149	      3397	       448	     42.09	      9.64	    311.63	     98240	      1654.79	     14.01	
