~VERSION INFORMATION
VERS.    2.0:   CWLS LOG ASCII STANDARD - VERSION 2.0
WRAP.     NO:   ONE LINE PER STEP
~WELL INFORMATION BLOCK
#MNEM.UNIT      DATA                  DESCRIPTION OF MNEMONIC
#----   --------             ---------------
STRT.m  481.50                   :START DEPTH
STOP.m  5220.00                   :STOP DEPTH
STEP.m  0.50                   :STEP VALUE
NULL.  -999.25                   :NULL VALUE
COMP.                      :COMPANY NAME
WELL.   Pharos-1                   :WELL NAME
FLD .   BROWSE                   :FIELD NAME
LOC .                      :LOCATION
PROV.                      :PROVINCE
SRVC.   Geoservices                   :SERVICE COMPANY NAME
DATE.   07-11-2014 02:35:18                   :DATE
UWI .                      :UNIQUE WELL IDENTIFIER
~PARAMETER INFORMATION
~CURVE INFORMATION
#MNEM.UNIT       API CODE        CURVE DESCRIPTION
#----   -------- ------------------
 .m        :
ROP offline .m/h        :ROP offline
Surface Torque .lbf.ft        :Surface Torque
Weight On Bit Driller .klbm        :Weight On Bit Driller
Mud Weight In .ppg        :Mud Weight In
Mud Weight Out .ppg        :Mud Weight Out
Temperature In .degC        :Temperature In
Temperature Out .degC        :Temperature Out
D-Exponent .Euc        :D-Exponent
Total RPM [Surface + DHM] .1/min        :Total RPM [Surface + DHM]
Stand Pipe Pressure .psi        :Stand Pipe Pressure
Pump flow .gpm        :Pump flow
TotalRotaryTime .h        :TotalRotaryTime
Bit Time .h        :Bit Time
Bit Run .m        :Bit Run
TotalCumRevOnBottom .Euc        :TotalCumRevOnBottom
Sum All Pits .bbl        :Sum All Pits
ECD .ppg        :ECD
#
#-----------------------------------------------------------
#  (m)   ROP offline (m/h)   Surface Torque (lbf.ft)   Weight On Bit Driller (klbm)   Mud Weight In (ppg)   Mud Weight Out (ppg)   Temperature In (degC)   Temperature Out (degC)   D-Exponent (Euc)   Total RPM [Surface + DHM] (1/min)   Stand Pipe Pressure (psi)   Pump flow (gpm)   TotalRotaryTime (h)   Bit Time (h)   Bit Run (m)   TotalCumRevOnBottom (Euc)   Sum All Pits (bbl)   ECD (ppg)
#-----------------------------------------------------------
~A
# ...
   2061.50	     32.77	     10454	     18.75	      8.60	      0.25	      27.8	      39.1	      1.05	       155	      2720	      1097	     53.29	     26.02	   1523.33	    246262	      2132.80	      8.61	
   2062.00	     29.39	     11236	     18.98	      8.60	      0.25	      27.7	      39.2	      1.08	       155	      2757	      1090	     53.31	     26.04	   1523.82	    246432	      2151.46	      8.61	
   2062.50	     28.65	     11889	     18.98	      8.60	      0.25	      27.8	      39.2	      1.05	       156	      2894	      1094	     53.32	     26.05	   1524.29	    246579	      2178.38	      8.61	
   2063.00	     30.56	     10975	     17.47	      8.60	      0.25	      27.8	      39.1	      1.03	       157	      3216	      1099	     53.34	     26.07	   1524.82	    246734	      2196.55	      8.61	
   2063.50	     33.07	     12071	     18.81	      8.60	      0.25	      27.8	      39.2	      1.01	       155	      3417	      1096	     53.36	     26.08	   1525.32	    246869	      2198.03	      8.61	
   2064.00	     35.42	     10391	     18.67	      8.60	      0.25	      27.8	      39.1	      1.01	       156	      3412	      1097	     53.37	     26.10	   1525.79	    246982	      2204.32	      8.61	
   2064.50	     39.62	     11578	     16.61	      8.60	      0.25	      27.8	      39.1	      0.95	       156	      3405	      1096	     53.38	     26.11	   1526.33	    247102	      2189.20	      8.61	
   2065.00	     48.10	     13950	     17.03	      8.60	      0.25	      27.8	      39.3	      0.90	       155	      3437	      1094	     53.39	     26.12	   1526.81	    247185	      2195.54	      8.61	
   2065.50	     56.27	     10445	     18.75	      8.60	      0.25	      27.7	      39.3	      0.90	       155	      3459	      1098	     53.40	     26.13	   1527.30	    247262	      2194.33	      8.61	
   2066.00	     49.24	      9298	     18.50	      8.60	      0.25	      27.8	      39.2	      0.96	       156	      3389	      1098	     53.41	     26.14	   1527.79	    247381	      2193.77	      8.61	
   2066.50	     31.38	      9419	     18.61	      8.60	      0.25	      27.7	      39.3	      1.05	       155	      3436	      1098	     53.43	     26.16	   1528.35	    247581	      2193.72	      8.61	
   2067.00	     29.29	     11842	     19.15	      8.60	      0.25	      27.8	      39.1	      1.06	       155	      3478	      1096	     53.45	     26.18	   1528.80	    247713	      2191.95	      8.61	
   2067.50	     30.94	      9946	     17.33	      8.60	      0.25	      27.8	      39.1	      1.04	       156	      3421	      1096	     53.47	     26.19	   1529.36	    247886	      2193.32	      8.61	
   2068.00	     29.80	     13343	     20.39	      8.60	      0.25	      27.8	      39.1	      1.05	       155	      3487	      1095	     53.48	     26.21	   1529.77	    248032	      2191.56	      8.61	
   2068.50	     37.00	      7145	     16.56	      8.60	      0.25	      27.7	      38.9	      0.99	       156	      3411	      1099	     53.49	     26.22	   1530.33	    248140	      2192.39	      8.61	
   2069.00	     36.40	      9627	     17.98	      8.60	      0.25	      27.8	      38.9	      1.00	       155	      3357	      1097	     53.51	     26.24	   1530.80	    248299	      2211.16	      8.61	
   2069.50	     26.12	      8892	     18.35	      8.60	      0.25	      27.8	      38.9	      1.09	       155	      3394	      1097	     53.53	     26.26	   1531.33	    248493	      2169.16	      8.61	
   2070.00	     23.55	      9572	     17.82	      8.60	      0.25	      27.8	      38.9	      1.12	       157	      3476	      1095	     53.55	     26.28	   1531.83	    248708	      2120.59	      8.61	
   2070.50	     22.82	     10692	     18.04	      8.60	      0.25	      27.8	      39.1	      1.11	       156	      3582	      1094	     53.57	     26.30	   1532.33	    248905	      2119.44	      8.61	
   2071.00	     20.08	      9281	     16.05	      8.60	      0.25	      27.8	      39.0	      1.13	       162	      3365	      1099	     53.75	     26.34	   1532.84	    249224	      2173.74	      8.61	
   2071.50	     19.69	      7689	     12.43	      8.60	      0.25	      27.8	      39.0	      1.08	       161	      3359	      1101	     53.77	     26.35	   1533.33	    249394	      2184.73	      8.61	
   2072.00	     23.40	     10171	     13.96	      8.60	      0.25	      27.8	      39.0	      1.04	       160	      3346	      1099	     53.79	     26.38	   1533.81	    249609	      2188.41	      8.61	
   2072.50	     23.77	     10784	     15.98	      8.60	      0.25	      27.8	      38.8	      1.06	       161	      3463	      1098	     53.81	     26.40	   1534.31	    249816	      2190.94	      8.61	
   2073.00	     28.47	     10242	     16.70	      8.60	      0.25	      27.8	      38.8	      1.03	       161	      3490	      1097	     53.83	     26.41	   1534.82	    249963	      2186.34	      8.61	
   2073.50	     32.72	      9508	     16.20	      8.60	      0.25	      27.8	      38.9	      1.00	       161	      3467	      1099	     53.84	     26.43	   1535.33	    250097	      2191.85	      8.61	
   2074.00	     34.16	     12097	     15.71	      8.60	      0.25	      27.7	      38.9	      0.99	       160	      3412	      1099	     53.86	     26.44	   1535.81	    250250	      2193.43	      8.61	
   2074.50	     35.57	     14434	     17.99	      8.60	      0.25	      27.7	      38.7	      1.00	       160	      3494	      1096	     53.87	     26.46	   1536.30	    250375	      2194.22	      8.61	
   2075.00	     30.83	      7680	     15.48	      8.60	      0.25	      27.8	      38.9	      1.05	       161	      3349	      1100	     53.89	     26.48	   1536.82	    250577	      2194.74	      8.61	
   2075.50	     19.49	      7162	     11.02	      8.60	      0.25	      27.8	      38.9	      1.11	       164	      3220	      1098	     53.94	     26.52	   1537.33	    250990	      2204.70	      8.61	
   2076.00	     20.64	     13770	     16.37	      8.60	      0.25	      27.8	      38.9	      1.05	       161	      3469	      1096	     53.95	     26.53	   1537.82	    251130	      2197.84	      8.61	
   2076.50	     30.71	     12909	     16.60	      8.60	      0.25	      27.7	      38.7	      1.01	       160	      3448	      1098	     53.97	     26.56	   1538.33	    251331	      2207.04	      8.61	
   2077.00	     29.74	     10929	     18.90	      8.60	      0.25	      27.8	      38.7	      1.03	       161	      3509	      1096	     53.99	     26.57	   1538.82	    251484	      2206.26	      8.61	
   2077.50	     29.02	     10278	     16.10	      8.60	      0.25	      27.8	      38.9	      1.04	       161	      3425	      1098	     54.01	     26.59	   1539.32	    251659	      2202.15	      8.61	
   2078.00	     27.78	     10951	     15.22	      8.60	      0.25	      27.8	      38.9	      1.03	       159	      3387	      1101	     54.02	     26.61	   1539.83	    251830	      2199.61	      8.61	
   2078.50	     31.22	     13708	     16.93	      8.60	      0.25	      27.8	      38.9	      0.99	       160	      3479	      1097	     54.04	     26.62	   1540.33	    251980	      2202.80	      8.61	
   2079.00	     34.60	     11525	     14.87	      8.60	      0.25	      27.8	      38.6	      0.98	       161	      3398	      1099	     54.05	     26.64	   1540.82	    252125	      2210.90	      8.61	
   2079.50	     36.31	     10445	     14.80	      8.60	      0.25	      27.8	      38.8	      0.98	       162	      3413	      1099	     54.07	     26.65	   1541.32	    252264	      2209.15	      8.61	
   2080.00	     38.21	     14978	     18.68	      8.60	      0.25	      27.8	      38.6	      0.96	       160	      3480	      1099	     54.08	     26.66	   1541.83	    252363	      2206.91	      8.61	
   2080.50	     44.30	     15608	     18.75	      8.60	      0.25	      27.7	      38.8	      0.95	       161	      3575	      1096	     54.09	     26.67	   1542.36	    252473	      2208.79	      8.61	
   2081.00	     44.95	     12038	     17.64	      8.60	      0.25	      27.8	      38.8	      0.96	       160	      3495	      1097	     54.10	     26.69	   1542.83	    252588	      2202.97	      8.61	
