~VERSION INFORMATION
VERS.    2.0:   CWLS LOG ASCII STANDARD - VERSION 2.0
WRAP.     NO:   ONE LINE PER STEP
~WELL INFORMATION BLOCK
#MNEM.UNIT      DATA                  DESCRIPTION OF MNEMONIC
#----   --------             ---------------
STRT.m  481.50                   :START DEPTH
STOP.m  5220.00                   :STOP DEPTH
STEP.m  0.50                   :STEP VALUE
NULL.  -999.25                   :NULL VALUE
COMP.                      :COMPANY NAME
WELL.   Pharos-1                   :WELL NAME
FLD .   BROWSE                   :FIELD NAME
LOC .                      :LOCATION
PROV.                      :PROVINCE
SRVC.   Geoservices                   :SERVICE COMPANY NAME
DATE.   07-11-2014 02:35:18                   :DATE
UWI .                      :UNIQUE WELL IDENTIFIER
~PARAMETER INFORMATION
~CURVE INFORMATION
#MNEM.UNIT       API CODE        CURVE DESCRIPTION
#----   -------- ------------------
 .m        :
ROP offline .m/h        :ROP offline
Surface Torque .lbf.ft        :Surface Torque
Weight On Bit Driller .klbm        :Weight On Bit Driller
Mud Weight In .ppg        :Mud Weight In
Mud Weight Out .ppg        :Mud Weight Out
Temperature In .degC        :Temperature In
Temperature Out .degC        :Temperature Out
D-Exponent .Euc        :D-Exponent
Total RPM [Surface + DHM] .1/min        :Total RPM [Surface + DHM]
Stand Pipe Pressure .psi        :Stand Pipe Pressure
Pump flow .gpm        :Pump flow
TotalRotaryTime .h        :TotalRotaryTime
Bit Time .h        :Bit Time
Bit Run .m        :Bit Run
TotalCumRevOnBottom .Euc        :TotalCumRevOnBottom
Sum All Pits .bbl        :Sum All Pits
ECD .ppg        :ECD
#
#-----------------------------------------------------------
#  (m)   ROP offline (m/h)   Surface Torque (lbf.ft)   Weight On Bit Driller (klbm)   Mud Weight In (ppg)   Mud Weight Out (ppg)   Temperature In (degC)   Temperature Out (degC)   D-Exponent (Euc)   Total RPM [Surface + DHM] (1/min)   Stand Pipe Pressure (psi)   Pump flow (gpm)   TotalRotaryTime (h)   Bit Time (h)   Bit Run (m)   TotalCumRevOnBottom (Euc)   Sum All Pits (bbl)   ECD (ppg)
#-----------------------------------------------------------
~A
# ...
   1101.50	     56.73	      1252	      7.23	      8.60	      0.25	      27.8	      37.9	      0.74	       133	      1747	       878	     26.96	      5.03	    562.65	     39782	      2218.01	      8.60	
   1102.00	     69.73	      4041	      9.89	      8.60	      0.25	      27.8	      37.7	      0.68	       133	      1739	       870	     26.97	      5.04	    563.17	     39827	      2203.04	      8.60	
   1102.50	     96.14	      2559	      7.24	      8.60	      0.25	      27.8	      37.8	      0.61	       135	      1799	       873	     26.97	      5.04	    563.65	     39867	      2210.65	      8.60	
   1103.00	    105.81	      3539	      7.61	      8.60	      0.25	      27.8	      37.7	      0.60	       132	      1766	       876	     26.97	      5.05	    564.15	     39902	      2198.21	      8.60	
   1103.50	    100.92	      4112	      7.59	      8.60	      0.25	      27.8	      37.5	      0.62	       131	      1767	       871	     26.98	      5.05	    564.63	     39947	      2209.90	      8.60	
   1104.00	     93.95	      3326	      6.48	      8.60	      0.25	      27.8	      37.9	      0.62	       133	      1774	       876	     26.99	      5.06	    565.15	     39986	      2213.69	      8.60	
   1104.50	     90.80	      3947	      8.11	      8.60	      0.25	      27.8	      37.8	      0.65	       131	      1744	       869	     26.99	      5.07	    565.61	     40042	      2209.14	      8.60	
   1105.00	     77.62	      3790	      7.34	      8.60	      0.25	      27.8	      37.5	      0.68	       133	      1729	       876	     27.00	      5.07	    566.19	     40095	      2205.25	      8.60	
   1105.50	     84.61	      4864	      9.30	      8.60	      0.25	      27.8	      37.5	      0.62	       132	      1808	       871	     27.00	      5.08	    566.58	     40135	      2195.27	      8.60	
   1106.00	    109.88	      4666	      6.62	      8.60	      0.25	      27.8	      37.7	      0.58	       132	      1691	       871	     27.01	      5.08	    567.14	     40166	      2196.47	      8.60	
   1106.50	    119.62	      2331	      8.14	      8.60	      0.25	      27.8	      37.7	      0.60	       133	      1709	       870	     27.01	      5.09	    567.63	     40202	      2185.04	      8.60	
   1107.00	    115.32	      4763	      8.37	      8.60	      0.25	      27.8	      37.8	      0.60	       133	      1702	       876	     27.02	      5.09	    568.20	     40237	      2183.22	      8.60	
   1107.50	    115.68	      3460	      7.58	      8.60	      0.25	      27.8	      37.9	      0.60	       134	      1684	       876	     27.02	      5.09	    568.66	     40268	      2184.97	      8.60	
   1108.00	    117.69	      3086	      7.35	      8.60	      0.25	      27.8	      37.9	      0.61	       134	      1702	       875	     27.02	      5.10	    569.17	     40303	      2181.06	      8.60	
   1108.50	    110.85	      6284	      8.48	      8.60	      0.25	      27.8	      37.8	      0.63	       132	      1758	       869	     27.03	      5.10	    569.67	     40345	      2179.03	      8.60	
   1109.00	    100.30	      7378	     11.15	      8.60	      0.25	      27.8	      37.8	      0.64	       130	      1833	       868	     27.03	      5.11	    570.12	     40380	      2170.33	      8.60	
   1109.50	     99.09	      3562	      9.01	      8.60	      0.25	      27.8	      37.8	      0.65	       133	      1807	       876	     27.04	      5.11	    570.65	     40426	      2174.15	      8.60	
   1110.00	     91.62	      5076	     11.10	      8.60	      0.25	      27.8	      37.8	      0.66	       132	      1644	       871	     27.05	      5.12	    571.14	     40471	      2161.07	      8.60	
   1110.50	     90.04	      5844	      9.48	      8.60	      0.25	      27.8	      37.8	      0.68	       131	      1525	       865	     27.05	      5.13	    571.60	     40510	      2168.47	      8.60	
   1111.00	     75.87	      3372	      7.17	      8.60	      0.25	      27.8	      37.9	      0.72	       133	      1540	       873	     27.06	      5.13	    572.20	     40576	      2173.59	      8.60	
   1111.50	     64.46	      2724	      9.18	      8.60	      0.25	      27.8	      37.7	      0.72	       142	      1568	       873	     27.07	      5.14	    572.72	     40641	      2182.19	      8.60	
   1112.00	     67.54	      2881	      8.83	      8.60	      0.25	      27.8	      37.5	      0.72	       132	      1600	       872	     27.07	      5.15	    573.10	     40694	      2195.02	      8.60	
   1112.50	     68.50	      2391	      9.30	      8.60	      0.25	      27.8	      37.8	      0.70	       133	      1619	       868	     27.08	      5.16	    573.65	     40756	      2204.61	      8.60	
   1113.00	     73.93	      4540	     10.70	      8.60	      0.25	      27.8	      37.8	      0.68	       134	      1572	       869	     27.09	      5.16	    574.13	     40803	      2197.49	      8.60	
   1113.50	     84.68	      1809	      8.93	      8.60	      0.25	      27.8	      37.8	      0.66	       135	      1559	       873	     27.09	      5.17	    574.65	     40847	      2201.57	      8.60	
   1114.00	     90.63	      3288	      9.48	      8.60	      0.25	      27.8	      37.8	      0.66	       132	      1683	       868	     27.10	      5.17	    575.12	     40887	      2193.07	      8.60	
   1114.50	     83.77	      3733	      9.69	      8.60	      0.25	      27.8	      37.8	      0.71	       131	      1803	       877	     27.11	      5.18	    575.65	     40947	      2182.62	      8.60	
   1115.00	     71.35	      5540	     11.38	      8.60	      0.25	      27.8	      37.9	      0.71	       134	      1869	       874	     27.11	      5.19	    576.18	     41007	      2172.05	      8.60	
   1115.50	     71.25	      2898	      8.75	      8.60	      0.25	      27.8	      37.9	      0.70	       136	      1836	       878	     27.12	      5.19	    576.68	     41060	      2166.12	      8.60	
   1116.00	     78.46	      3035	      8.71	      8.60	      0.25	      27.8	      37.9	      0.68	       134	      1870	       879	     27.12	      5.20	    577.11	     41100	      2163.17	      8.60	
   1116.50	     90.61	      4756	     10.82	      8.60	      0.25	      27.8	      37.9	      0.65	       131	      1924	       874	     27.13	      5.20	    577.62	     41147	      2144.20	      8.60	
   1117.00	     83.50	      3739	      9.37	      8.60	      0.25	      27.8	      37.8	      0.68	       130	      1897	       873	     27.14	      5.21	    578.10	     41209	      2121.72	      8.60	
   1117.50	     75.57	      2990	      9.43	      8.60	      0.25	      27.8	      37.9	      0.69	       137	      1933	       879	     27.14	      5.22	    578.60	     41253	      2118.22	      8.60	
   1118.00	     86.55	      3755	      8.54	      8.60	      0.25	      27.8	      37.9	      0.65	       138	      2052	       884	     27.15	      5.22	    579.14	     41300	      2115.49	      8.60	
   1118.50	     85.03	      1793	      8.73	      8.60	      0.25	      27.8	      37.9	      0.66	       136	      2109	       881	     27.16	      5.23	    579.61	     41354	      2117.94	      8.60	
   1119.00	     61.54	      3155	      5.26	      8.60	      0.25	      27.8	      37.8	      0.73	       133	      1819	       880	     27.30	      5.25	    580.17	     41489	      2158.69	      8.60	
   1119.50	     35.09	      1343	      3.88	      8.60	      0.25	      27.8	      38.0	      0.76	       131	      1777	       883	     27.32	      5.26	    580.70	     41595	      2169.61	      8.60	
   1120.00	     32.85	      3610	      5.79	      8.60	      0.25	      27.8	      38.0	      0.74	       132	      1829	       878	     27.33	      5.27	    581.12	     41675	      2174.76	      8.60	
   1120.50	     39.05	      3625	      4.90	      8.60	      0.25	      27.8	      38.1	      0.70	       131	      1797	       880	     27.34	      5.29	    581.68	     41799	      2183.37	      8.60	
   1121.00	     48.40	      2084	      5.23	      8.60	      0.25	      27.8	      37.7	      0.68	       133	      1821	       879	     27.35	      5.30	    582.16	     41873	      2187.96	      8.60	
