~VERSION INFORMATION
VERS.    2.0:   CWLS LOG ASCII STANDARD - VERSION 2.0
WRAP.     NO:   ONE LINE PER STEP
~WELL INFORMATION BLOCK
#MNEM.UNIT      DATA                  DESCRIPTION OF MNEMONIC
#----   --------             ---------------
STRT.m  481.50                   :START DEPTH
STOP.m  5220.00                   :STOP DEPTH
STEP.m  0.50                   :STEP VALUE
NULL.  -999.25                   :NULL VALUE
COMP.                      :COMPANY NAME
WELL.   Pharos-1                   :WELL NAME
FLD .   BROWSE                   :FIELD NAME
LOC .                      :LOCATION
PROV.                      :PROVINCE
SRVC.   Geoservices                   :SERVICE COMPANY NAME
DATE.   07-11-2014 02:35:18                   :DATE
UWI .                      :UNIQUE WELL IDENTIFIER
~PARAMETER INFORMATION
~CURVE INFORMATION
#MNEM.UNIT       API CODE        CURVE DESCRIPTION
#----   -------- ------------------
 .m        :
ROP offline .m/h        :ROP offline
Surface Torque .lbf.ft        :Surface Torque
Weight On Bit Driller .klbm        :Weight On Bit Driller
Mud Weight In .ppg        :Mud Weight In
Mud Weight Out .ppg        :Mud Weight Out
Temperature In .degC        :Temperature In
Temperature Out .degC        :Temperature Out
D-Exponent .Euc        :D-Exponent
Total RPM [Surface + DHM] .1/min        :Total RPM [Surface + DHM]
Stand Pipe Pressure .psi        :Stand Pipe Pressure
Pump flow .gpm        :Pump flow
TotalRotaryTime .h        :TotalRotaryTime
Bit Time .h        :Bit Time
Bit Run .m        :Bit Run
TotalCumRevOnBottom .Euc        :TotalCumRevOnBottom
Sum All Pits .bbl        :Sum All Pits
ECD .ppg        :ECD
#
#-----------------------------------------------------------
#  (m)   ROP offline (m/h)   Surface Torque (lbf.ft)   Weight On Bit Driller (klbm)   Mud Weight In (ppg)   Mud Weight Out (ppg)   Temperature In (degC)   Temperature Out (degC)   D-Exponent (Euc)   Total RPM [Surface + DHM] (1/min)   Stand Pipe Pressure (psi)   Pump flow (gpm)   TotalRotaryTime (h)   Bit Time (h)   Bit Run (m)   TotalCumRevOnBottom (Euc)   Sum All Pits (bbl)   ECD (ppg)
#-----------------------------------------------------------
~A
# ...
   1741.50	     50.81	     13957	     11.11	      8.60	      0.25	      27.8	      34.6	      0.82	       169	      2818	      1088	     43.87	     18.53	   1203.14	    170130	      2115.43	      8.61	
   1742.00	     69.56	     12594	     10.42	      8.60	      0.25	      27.8	      34.4	      0.76	       170	      2911	      1091	     43.87	     18.53	   1203.62	    170195	      2131.56	      8.61	
   1742.50	     77.07	     15927	     10.79	      8.60	      0.25	      27.8	      34.1	      0.77	       169	      2954	      1088	     43.88	     18.54	   1204.11	    170254	      2137.21	      8.61	
   1743.00	     69.80	     10918	     11.32	      8.60	      0.25	      27.8	      34.5	      0.80	       169	      2854	      1087	     43.89	     18.55	   1204.61	    170336	      2126.16	      8.61	
   1743.50	     64.55	     13516	     12.22	      8.60	      0.25	      27.8	      34.4	      0.92	       170	      2815	      1089	     43.90	     18.56	   1205.15	    170441	      2116.32	      8.61	
   1744.00	     35.30	     11151	     12.37	      8.60	      0.25	      27.8	      34.5	      1.08	       169	      2305	      1069	     43.92	     18.58	   1205.61	    170681	      2115.58	      8.61	
   1744.50	     20.10	      9675	     13.54	      8.60	      0.25	      27.8	      34.3	      1.02	       169	      2606	      1077	     43.95	     18.61	   1206.10	    170996	      2181.82	      8.61	
   1745.00	     38.63	      9830	     12.61	      8.60	      0.25	      27.8	      34.4	      0.80	       170	      2930	      1090	     43.96	     18.62	   1206.52	    171075	      2192.84	      8.61	
   1745.50	     75.68	      2867	      8.33	      8.60	      0.25	      27.8	      34.2	      0.71	       172	      2817	      1095	     43.97	     18.62	   1207.21	    171132	      2192.91	      8.61	
   1746.00	     93.19	     16128	     10.85	      8.60	      0.25	      27.8	      34.4	      0.76	       169	      3015	      1087	     43.97	     18.63	   1207.56	    171186	      2198.86	      8.61	
   1746.50	     80.21	     12388	     14.51	      8.60	      0.25	      27.8	      34.3	      0.77	       170	      3179	      1092	     43.98	     18.64	   1208.08	    171263	      2205.58	      8.61	
   1747.00	     85.49	      7538	     12.07	      8.60	      0.25	      27.8	      34.4	      0.71	       172	      3145	      1094	     43.98	     18.64	   1208.58	    171311	      2202.15	      8.61	
   1747.50	    108.04	      7231	     10.47	      8.60	      0.25	      27.8	      34.5	      0.67	       173	      3119	      1097	     43.99	     18.65	   1209.10	    171351	      2207.68	      8.61	
   1748.00	    130.26	      5672	      9.28	      8.60	      0.25	      27.8	      34.1	      0.65	       171	      3116	      1095	     43.99	     18.65	   1209.67	    171391	      2210.61	      8.61	
   1748.50	    131.98	      8678	     10.69	      8.60	      0.25	      27.8	      34.3	      0.65	       171	      3158	      1094	     43.99	     18.65	   1210.05	    171425	      2211.95	      8.61	
   1749.00	    132.75	      9869	     10.66	      8.60	      0.25	      27.8	      34.6	      0.65	       170	      3157	      1095	     44.00	     18.66	   1210.56	    171464	      2212.05	      8.61	
   1749.50	    146.37	     14806	      9.59	      8.60	      0.25	      27.8	      34.2	      0.62	       169	      3145	      1094	     44.00	     18.66	   1211.07	    171498	      2209.18	      8.61	
   1750.00	    156.65	     12256	     11.71	      8.60	      0.25	      27.8	      34.4	      0.60	       171	      3130	      1093	     44.00	     18.66	   1211.55	    171527	      2209.62	      8.61	
   1750.50	    133.53	      6593	     10.00	      8.60	      0.25	      27.8	      34.2	      0.67	       171	      3063	      1091	     44.01	     18.67	   1212.08	    171581	      2199.39	      8.61	
   1751.00	     96.39	     10687	     11.87	      8.60	      0.25	      27.8	      34.2	      0.76	       170	      3146	      1092	     44.02	     18.68	   1212.59	    171647	      2218.34	      8.61	
   1751.50	     85.15	     14076	     12.22	      8.60	      0.25	      27.8	      34.5	      0.76	       169	      3139	      1095	     44.02	     18.68	   1213.09	    171703	      2219.52	      8.61	
   1752.00	     85.50	     11091	     11.66	      8.60	      0.25	      27.8	      34.3	      0.76	       165	      2832	      1044	     44.03	     18.69	   1213.66	    171767	      2207.04	      8.61	
   1752.50	     76.72	     14928	     13.82	      8.60	      0.25	      27.8	      34.6	      0.82	       164	      2943	      1046	     44.04	     18.69	   1214.20	    171840	      2197.45	      8.61	
   1753.00	     49.75	      9010	      9.56	      8.60	      0.25	      27.8	      34.3	      0.91	       165	      2765	      1039	     44.05	     18.71	   1214.70	    172027	      2162.60	      8.61	
   1753.50	     27.25	      8019	     10.34	      8.60	      0.25	      27.8	      34.4	      1.01	       165	      2823	      1040	     44.08	     18.74	   1215.15	    172272	      2137.40	      8.61	
   1754.00	     21.72	     12182	      7.64	      8.60	      0.25	      27.8	      34.4	      1.01	       180	      3158	      1110	     44.27	     18.77	   1215.70	    172530	      2202.29	      8.61	
   1754.50	     32.09	     13041	     11.62	      8.60	      0.25	      27.8	      34.5	      0.88	       181	      3307	      1112	     44.28	     18.77	   1216.10	    172611	      2207.99	      8.61	
   1755.00	     56.76	     14918	     12.07	      8.60	      0.25	      27.8	      34.4	      0.80	       181	      3292	      1111	     44.28	     18.78	   1216.54	    172686	      2205.04	      8.61	
   1755.50	     71.47	     12546	     11.99	      8.60	      0.25	      27.8	      34.2	      0.77	       180	      3184	      1110	     44.29	     18.79	   1217.17	    172755	      2201.10	      8.61	
   1756.00	     83.19	     12052	     10.36	      8.60	      0.25	      27.8	      34.3	      0.75	       181	      3249	      1117	     44.30	     18.79	   1217.62	    172825	      2206.91	      8.61	
   1756.50	     78.32	     13899	     11.13	      8.60	      0.25	      27.8	      34.4	      0.75	       181	      3275	      1108	     44.30	     18.80	   1218.01	    172897	      2208.03	      8.61	
   1757.00	     75.60	     11594	      8.18	      8.60	      0.25	      27.8	      34.4	      0.72	       181	      3050	      1107	     44.31	     18.81	   1218.63	    172973	      2209.15	      8.61	
   1757.50	     90.37	     11539	      9.99	      8.60	      0.25	      27.8	      34.4	      0.67	       181	      3205	      1105	     44.31	     18.81	   1219.04	    173015	      2208.20	      8.61	
   1758.00	    125.85	     14627	      8.89	      8.60	      0.25	      27.8	      34.4	      0.63	       180	      3211	      1108	     44.32	     18.81	   1219.55	    173051	      2209.76	      8.61	
   1758.50	    152.27	     11840	      7.71	      8.60	      0.25	      27.8	      34.5	      0.64	       181	      3140	      1109	     44.32	     18.82	   1220.11	    173087	      2209.78	      8.61	
   1759.00	    148.26	     10560	     10.55	      8.60	      0.25	      27.8	      34.4	      0.66	       181	      3248	      1110	     44.33	     18.82	   1220.59	    173129	      2208.21	      8.61	
   1759.50	    139.03	     13644	     12.04	      8.60	      0.25	      27.8	      34.4	      0.66	       181	      3327	      1109	     44.33	     18.82	   1221.07	    173165	      2208.15	      8.61	
   1760.00	    151.50	     11252	     11.59	      8.60	      0.25	      27.8	      34.4	      0.61	       181	      3283	      1117	     44.33	     18.83	   1221.53	    173195	      2200.26	      8.61	
   1760.50	    141.76	     15054	      9.37	      8.60	      0.25	      27.8	      34.3	      0.69	       180	      3324	      1111	     44.34	     18.83	   1222.06	    173244	      2208.83	      8.61	
   1761.00	    127.29	     19811	     10.75	      8.60	      0.25	      27.8	      34.3	      0.66	       171	      3259	      1109	     44.34	     18.84	   1222.62	    173284	      2206.77	      8.61	
