~VERSION INFORMATION
VERS.    2.0:   CWLS LOG ASCII STANDARD - VERSION 2.0
WRAP.     NO:   ONE LINE PER STEP
~WELL INFORMATION BLOCK
#MNEM.UNIT      DATA                  DESCRIPTION OF MNEMONIC
#----   --------             ---------------
STRT.m  481.50                   :START DEPTH
STOP.m  5220.00                   :STOP DEPTH
STEP.m  0.50                   :STEP VALUE
NULL.  -999.25                   :NULL VALUE
COMP.                      :COMPANY NAME
WELL.   Pharos-1                   :WELL NAME
FLD .   BROWSE                   :FIELD NAME
LOC .                      :LOCATION
PROV.                      :PROVINCE
SRVC.   Geoservices                   :SERVICE COMPANY NAME
DATE.   07-11-2014 02:35:18                   :DATE
UWI .                      :UNIQUE WELL IDENTIFIER
~PARAMETER INFORMATION
~CURVE INFORMATION
#MNEM.UNIT       API CODE        CURVE DESCRIPTION
#----   -------- ------------------
 .m        :
ROP offline .m/h        :ROP offline
Surface Torque .lbf.ft        :Surface Torque
Weight On Bit Driller .klbm        :Weight On Bit Driller
Mud Weight In .ppg        :Mud Weight In
Mud Weight Out .ppg        :Mud Weight Out
Temperature In .degC        :Temperature In
Temperature Out .degC        :Temperature Out
D-Exponent .Euc        :D-Exponent
Total RPM [Surface + DHM] .1/min        :Total RPM [Surface + DHM]
Stand Pipe Pressure .psi        :Stand Pipe Pressure
Pump flow .gpm        :Pump flow
TotalRotaryTime .h        :TotalRotaryTime
Bit Time .h        :Bit Time
Bit Run .m        :Bit Run
TotalCumRevOnBottom .Euc        :TotalCumRevOnBottom
Sum All Pits .bbl        :Sum All Pits
ECD .ppg        :ECD
#
#-----------------------------------------------------------
#  (m)   ROP offline (m/h)   Surface Torque (lbf.ft)   Weight On Bit Driller (klbm)   Mud Weight In (ppg)   Mud Weight Out (ppg)   Temperature In (degC)   Temperature Out (degC)   D-Exponent (Euc)   Total RPM [Surface + DHM] (1/min)   Stand Pipe Pressure (psi)   Pump flow (gpm)   TotalRotaryTime (h)   Bit Time (h)   Bit Run (m)   TotalCumRevOnBottom (Euc)   Sum All Pits (bbl)   ECD (ppg)
#-----------------------------------------------------------
~A
# ...
   2681.50	     75.78	     12337	     13.93	      8.60	      8.97	      27.6	      31.9	      0.92	       169	      2774	       904	     97.83	     20.42	    412.35	    225999	      1625.13	      8.68	
   2682.00	     68.75	     19356	     20.00	      8.60	      8.96	      27.6	      31.8	      0.94	       169	      2946	       900	     97.84	     20.42	    412.91	    226049	      1632.12	      8.68	
   2682.50	     78.31	     13740	     17.83	      8.60	      8.97	      27.5	      31.6	      0.91	       169	      2896	       903	     97.84	     20.43	    413.43	    226111	      1628.54	      8.68	
   2683.00	     88.03	     14380	     19.60	      8.60	      8.99	      27.4	      31.5	      0.88	       169	      2843	       903	     97.85	     20.43	    413.88	    226165	      1633.23	      8.68	
   2683.50	     89.34	     15839	     16.59	      8.60	      8.99	      27.4	      31.3	      0.95	       169	      2899	       903	     97.86	     20.44	    414.33	    226243	      1635.32	      8.68	
   2684.00	     61.13	     16472	     15.52	      8.60	      8.99	      27.3	      31.2	      1.05	       169	      2925	       902	     97.87	     20.46	    414.86	    226393	      1658.24	      8.68	
   2684.50	     42.61	     13306	     14.46	      8.60	      8.97	      27.2	      31.0	      1.03	       169	      2851	       904	     97.88	     20.47	    415.35	    226494	      1674.30	      8.68	
   2685.00	     44.92	     12803	     18.48	      8.60	      8.98	      27.1	      31.0	      1.02	       169	      2822	       903	     97.89	     20.47	    415.83	    226573	      1680.32	      8.68	
   2685.50	     46.97	     15294	     16.61	      8.60	      9.00	      27.0	      30.5	      1.03	       169	      2874	       903	     97.90	     20.49	    416.35	    226692	      1710.68	      8.68	
   2686.00	     43.00	     11808	     16.03	      8.60	      8.95	      26.9	      30.5	      1.06	       170	      2921	       902	     97.91	     20.50	    416.85	    226825	      1732.09	      8.68	
   2686.50	     40.83	     11753	     19.37	      8.60	      8.89	      26.9	      30.3	      1.11	       170	      2950	       902	     97.93	     20.51	    417.34	    226974	      1749.00	      8.68	
   2687.00	     30.74	     10702	      9.63	      8.60	      8.89	      26.8	      30.2	      1.08	       170	      2681	       905	     97.95	     20.53	    417.80	    227167	      1780.57	      8.68	
   2687.50	     28.62	     10698	     10.10	      8.60	      8.93	      26.7	      30.0	      1.00	       170	      2697	       906	     97.96	     20.55	    418.31	    227321	      1806.05	      8.68	
   2688.00	     32.76	      7531	      8.45	      8.60	      8.97	      26.6	      29.8	      1.09	       171	      2755	       905	     97.99	     20.58	    418.81	    227610	      1852.00	      8.68	
   2688.50	     23.27	      9723	     13.06	      8.60	      8.97	      26.5	      29.4	      1.22	       170	      2794	       904	     98.01	     20.60	    419.40	    227825	      1868.16	      8.68	
   2689.00	     23.12	      6546	      9.51	      8.60	      9.01	      26.4	      31.3	      1.02	       169	      2598	       894	     98.33	     20.63	    419.83	    228149	      1692.96	      8.68	
   2689.50	     65.34	     15920	     19.09	      8.60	      8.99	      26.3	      32.2	      0.98	       167	      2878	       893	     98.33	     20.63	    420.34	    228199	      1695.29	      8.68	
   2690.00	     59.90	     10079	      7.23	      8.60	      8.93	      26.4	      34.2	      1.03	       185	      3561	      1051	     98.37	     20.68	    420.85	    228657	      1713.86	      8.71	
   2690.50	     39.59	     12785	     10.90	      8.60	      8.92	      26.4	      33.9	      0.91	       185	      3666	      1052	     98.38	     20.68	    421.28	    228734	      1721.08	      8.71	
   2691.00	     61.50	     11533	     11.37	      8.60	      8.90	      26.4	      33.8	      0.93	       185	      3591	      1053	     98.39	     20.69	    421.90	    228848	      1744.20	      8.71	
   2691.50	     58.69	     12719	     14.19	      8.60	      8.90	      26.4	      33.7	      0.94	       185	      3612	      1052	     98.40	     20.70	    422.34	    228922	      1742.58	      8.71	
   2692.00	     73.77	     13975	     15.43	      8.60	      8.92	      26.4	      33.1	      0.91	       184	      3669	      1051	     98.40	     20.71	    422.83	    228983	      1751.18	      8.71	
   2692.50	     74.68	     18182	     15.98	      8.60	      8.88	      26.9	      33.1	      0.97	       184	      3820	      1050	     98.41	     20.72	    423.36	    229085	      1764.85	      8.71	
   2693.00	     57.77	     15649	     13.61	      8.60	      8.88	      27.1	      32.7	      0.97	       184	      3735	      1051	     98.42	     20.72	    423.85	    229189	      1789.67	      8.71	
   2693.50	     60.97	     15414	      9.55	      8.60	      8.86	      27.2	      32.4	      0.86	       184	      3645	      1050	     98.43	     20.73	    424.35	    229269	      1807.53	      8.71	
   2694.00	     63.51	     13137	     11.09	      8.60	      8.84	      27.3	      32.1	      0.87	       185	      3558	      1052	     98.44	     20.74	    424.95	    229373	      1813.79	      8.71	
   2694.50	     43.35	     10372	     13.14	      8.60	      8.79	      27.4	      31.9	      0.97	       185	      3575	      1053	     98.46	     20.76	    425.31	    229556	      1842.86	      8.71	
   2695.00	     64.69	     14129	     16.03	      8.60	      8.65	      27.5	      31.7	      0.93	       185	      3679	      1052	     98.46	     20.76	    425.84	    229599	      1845.69	      8.71	
   2695.50	    111.49	     15788	     13.25	      8.60	      8.77	      27.5	      31.9	      0.82	       184	      3753	      1050	     98.46	     20.77	    426.34	    229654	      1847.64	      8.71	
   2696.00	    115.17	     15085	     14.51	      8.60	      8.78	      27.6	      31.7	      0.84	       184	      3685	      1051	     98.47	     20.77	    426.83	    229697	      1846.67	      8.71	
   2696.50	    119.78	     18002	     15.96	      8.60	      8.77	      27.6	      31.8	      0.82	       184	      3777	      1047	     98.47	     20.77	    427.27	    229740	      1844.55	      8.71	
   2697.00	    116.33	     16860	     16.86	      8.60	      8.75	      27.6	      31.8	      0.84	       184	      3767	      1053	     98.48	     20.78	    427.80	    229789	      1846.33	      8.71	
   2697.50	     95.30	     15411	     14.61	      8.60	      8.74	      27.7	      31.9	      0.89	       184	      3682	      1052	     98.48	     20.79	    428.35	    229869	      1836.23	      8.71	
   2698.00	     84.34	     15555	     18.84	      8.60	      8.72	      27.7	      31.7	      0.88	       184	      3752	      1051	     98.49	     20.79	    428.84	    229927	      1829.61	      8.71	
   2698.50	     89.65	     15286	     13.07	      8.60	      8.77	      27.8	      31.7	      0.85	       184	      3691	      1051	     98.49	     20.80	    429.35	    229989	      1820.28	      8.71	
   2699.00	     91.76	     14426	     16.17	      8.60	      8.81	      27.8	      31.9	      0.83	       185	      3723	      1052	     98.50	     20.80	    429.88	    230051	      1806.95	      8.71	
   2699.50	     82.09	     13353	      8.45	      8.60	      8.81	      27.8	      31.9	      0.85	       185	      3637	      1053	     98.51	     20.81	    430.30	    230124	      1798.08	      8.71	
   2700.00	     67.36	     11944	     15.33	      8.60	      8.81	      27.8	      32.0	      0.91	       185	      3614	      1051	     98.51	     20.82	    430.93	    230208	      1785.84	      8.71	
   2700.50	     65.67	     12109	     13.57	      8.60	      8.76	      27.9	      32.0	      0.87	       184	      3676	      1051	     98.52	     20.82	    431.37	    230294	      1778.61	      8.71	
   2701.00	     95.28	     14241	     14.44	      8.60	      8.93	      27.9	      31.8	      0.80	       185	      3720	      1052	     98.53	     20.83	    431.83	    230343	      1769.52	      8.71	
