~VERSION INFORMATION
VERS.    2.0:   CWLS LOG ASCII STANDARD - VERSION 2.0
WRAP.     NO:   ONE LINE PER STEP
~WELL INFORMATION BLOCK
#MNEM.UNIT      DATA                  DESCRIPTION OF MNEMONIC
#----   --------             ---------------
STRT.m  481.50                   :START DEPTH
STOP.m  5220.00                   :STOP DEPTH
STEP.m  0.50                   :STEP VALUE
NULL.  -999.25                   :NULL VALUE
COMP.                      :COMPANY NAME
WELL.   Pharos-1                   :WELL NAME
FLD .   BROWSE                   :FIELD NAME
LOC .                      :LOCATION
PROV.                      :PROVINCE
SRVC.   Geoservices                   :SERVICE COMPANY NAME
DATE.   07-11-2014 02:35:18                   :DATE
UWI .                      :UNIQUE WELL IDENTIFIER
~PARAMETER INFORMATION
~CURVE INFORMATION
#MNEM.UNIT       API CODE        CURVE DESCRIPTION
#----   -------- ------------------
 .m        :
ROP offline .m/h        :ROP offline
Surface Torque .lbf.ft        :Surface Torque
Weight On Bit Driller .klbm        :Weight On Bit Driller
Mud Weight In .ppg        :Mud Weight In
Mud Weight Out .ppg        :Mud Weight Out
Temperature In .degC        :Temperature In
Temperature Out .degC        :Temperature Out
D-Exponent .Euc        :D-Exponent
Total RPM [Surface + DHM] .1/min        :Total RPM [Surface + DHM]
Stand Pipe Pressure .psi        :Stand Pipe Pressure
Pump flow .gpm        :Pump flow
TotalRotaryTime .h        :TotalRotaryTime
Bit Time .h        :Bit Time
Bit Run .m        :Bit Run
TotalCumRevOnBottom .Euc        :TotalCumRevOnBottom
Sum All Pits .bbl        :Sum All Pits
ECD .ppg        :ECD
#
#-----------------------------------------------------------
#  (m)   ROP offline (m/h)   Surface Torque (lbf.ft)   Weight On Bit Driller (klbm)   Mud Weight In (ppg)   Mud Weight Out (ppg)   Temperature In (degC)   Temperature Out (degC)   D-Exponent (Euc)   Total RPM [Surface + DHM] (1/min)   Stand Pipe Pressure (psi)   Pump flow (gpm)   TotalRotaryTime (h)   Bit Time (h)   Bit Run (m)   TotalCumRevOnBottom (Euc)   Sum All Pits (bbl)   ECD (ppg)
#-----------------------------------------------------------
~A
# ...
   3321.50	     13.76	      8988	     33.46	      8.60	      8.76	      28.2	      31.5	      1.63	       175	      3792	      1053	    149.34	     65.70	   1053.17	    684457	      1766.63	      8.71	
   3322.00	      9.90	      9246	     31.49	      8.60	      8.77	      27.5	      31.6	      1.71	       175	      3803	      1053	    149.40	     65.76	   1053.68	    685081	      1683.17	      8.71	
   3322.50	      9.14	     11042	     33.53	      8.60	      8.77	      27.1	      31.6	      1.71	       175	      3826	      1054	    149.45	     65.82	   1054.25	    685633	      1642.43	      8.71	
   3323.00	     10.18	      9098	     33.98	      8.60	      8.65	      26.9	      31.4	      1.69	       175	      3802	      1053	    149.50	     65.86	   1054.68	    686091	      1667.96	      8.71	
   3323.50	     10.48	      9121	     33.73	      8.60	      8.58	      26.7	      31.1	      1.70	       175	      3796	      1053	    149.55	     65.91	   1055.21	    686633	      1715.57	      8.71	
   3324.00	      9.68	      9543	     35.64	      8.60	      8.60	      26.5	      31.0	      1.73	       175	      3803	      1053	    149.61	     65.97	   1055.76	    687221	      1776.60	      8.71	
   3324.50	      7.83	      7375	     21.07	      8.60	      8.65	      26.4	      31.4	      1.71	       175	      3834	      1054	    149.69	     66.05	   1056.18	    688055	      1926.61	      8.71	
   3325.00	      8.32	      8930	     28.15	      8.60	      8.65	      26.4	      35.1	      1.62	       175	      3908	      1056	    149.73	     66.09	   1056.69	    688493	      1922.89	      8.71	
   3325.50	     10.22	      9032	     27.17	      8.60	      8.71	      26.4	      34.8	      1.61	       175	      3890	      1057	    149.78	     66.14	   1057.18	    688981	      1927.34	      8.71	
   3326.00	     10.21	     10382	     27.91	      8.60	      8.68	      26.4	      32.0	      1.60	       175	      3876	      1056	    149.83	     66.19	   1057.66	    689553	      1923.26	      8.71	
   3326.50	     10.86	      9302	     27.04	      8.60	      8.70	      26.4	      32.2	      1.58	       175	      3890	      1057	    149.87	     66.24	   1058.21	    690020	      1924.47	      8.71	
   3327.00	      9.57	      9012	     36.76	      8.60	      8.73	      26.3	      32.8	      1.68	       176	      3869	      1057	    149.92	     66.29	   1058.66	    690545	      1933.21	      8.71	
   3327.50	      8.45	      9736	     36.95	      8.60	      8.74	      26.3	      33.0	      1.77	       175	      3900	      1056	    149.99	     66.35	   1059.20	    691206	      1857.29	      8.71	
   3328.00	     11.52	      9685	     37.36	      8.60	      8.75	      26.2	      32.9	      1.69	       175	      3858	      1056	    150.03	     66.39	   1059.66	    691600	      1801.07	      8.71	
   3328.50	     13.36	      8804	     37.45	      8.60	      8.76	      26.2	      32.6	      1.70	       176	      3818	      1054	    150.08	     66.44	   1060.21	    692164	      1725.49	      8.71	
   3329.00	     10.57	      9300	     36.06	      8.60	      8.75	      26.3	      32.5	      1.74	       175	      3834	      1056	    150.13	     66.50	   1060.67	    692730	      1686.15	      8.71	
   3329.50	     12.06	     10581	     40.05	      8.60	      8.76	      26.3	      32.3	      1.69	       175	      3843	      1056	    150.17	     66.53	   1061.20	    693095	      1721.76	      8.71	
   3330.00	     12.24	     10850	     36.41	      8.60	      8.57	      26.2	      31.8	      1.72	       175	      3862	      1056	    150.22	     66.58	   1061.68	    693599	      1776.11	      8.71	
   3330.50	     11.11	      9542	     38.22	      8.60	      8.56	      25.9	      31.7	      1.73	       175	      3816	      1053	    150.26	     66.62	   1062.21	    694022	      1801.94	      8.71	
   3331.00	      9.83	      9962	     35.68	      8.60	      8.59	      27.8	      31.8	      1.78	       176	      3830	      1055	    150.32	     66.68	   1062.73	    694699	      1854.04	      8.71	
   3331.50	      8.77	      8756	     34.26	      8.60	      8.61	      28.1	      32.0	      1.76	       175	      3808	      1055	    150.38	     66.74	   1063.16	    695322	      1871.10	      8.71	
   3332.00	      9.43	      9192	     35.36	      8.60	      8.61	      28.6	      32.1	      1.75	       175	      3818	      1054	    150.43	     66.80	   1063.73	    695902	      1869.44	      8.71	
   3332.50	      8.61	     13443	     35.22	      8.60	      8.65	      28.8	      32.1	      1.76	       173	      3845	      1053	    150.49	     66.86	   1064.20	    696529	      1810.79	      8.71	
   3333.00	      9.40	      8971	     32.42	      8.60	      8.68	      28.5	      32.0	      1.72	       175	      3801	      1053	    150.55	     66.92	   1064.67	    697158	      1727.02	      8.71	
   3333.50	      8.72	     10501	     34.26	      8.60	      8.72	      27.8	      31.9	      1.76	       175	      3785	      1053	    150.61	     66.98	   1065.20	    697785	      1646.61	      8.71	
   3334.00	      9.04	     12473	     34.14	      8.60	      8.74	      27.3	      31.8	      1.72	       175	      3810	      1054	    150.66	     67.02	   1065.67	    698289	      1643.59	      8.71	
   3334.50	     10.11	     15804	     35.93	      8.60	      8.63	      26.9	      31.7	      1.73	       175	      3835	      1054	    150.71	     67.07	   1066.23	    698817	      1712.02	      8.71	
   3335.00	      9.90	      9050	     36.55	      8.60	      8.59	      26.7	      31.5	      1.74	       175	      3779	      1053	    150.76	     67.13	   1066.69	    699347	      1746.10	      8.71	
   3335.50	     10.67	      8457	     36.48	      8.60	      8.59	      26.5	      31.7	      1.73	       182	      3805	      1054	    150.83	     67.19	   1067.17	    700004	      1798.36	      8.71	
   3336.00	     10.56	      9311	     34.33	      8.60	      8.61	      26.4	      31.3	      1.73	       178	      3792	      1054	    150.87	     67.23	   1067.62	    700433	      1853.71	      8.71	
   3336.50	     11.33	      9208	     36.18	      8.60	      8.61	      26.3	      31.5	      1.73	       178	      3782	      1054	    150.92	     67.28	   1068.21	    700997	      1884.87	      8.71	
   3337.00	     10.13	      8986	     35.06	      8.60	      8.65	      26.3	      31.2	      1.79	       178	      3764	      1054	    150.98	     67.34	   1068.68	    701628	      1886.06	      8.71	
   3337.50	      8.48	      9477	     35.78	      8.60	      8.67	      26.2	      31.3	      1.81	       179	      3830	      1058	    151.03	     67.39	   1069.13	    702166	      1822.21	      8.71	
   3338.00	      9.16	      9533	     38.62	      8.60	      8.68	      26.3	      31.7	      1.76	       179	      3875	      1058	    151.08	     67.44	   1069.72	    702696	      1738.12	      8.71	
   3338.50	     10.82	      9630	     37.66	      8.60	      8.65	      26.4	      32.3	      1.75	       179	      3855	      1058	    151.12	     67.49	   1070.18	    703187	      1682.01	      8.71	
   3339.00	     10.56	      9859	     39.05	      8.60	      8.68	      26.4	      31.9	      1.77	       179	      3876	      1058	    151.17	     67.53	   1070.68	    703654	      1711.15	      8.71	
   3339.50	     10.81	      9430	     38.09	      8.60	      8.54	      26.4	      32.0	      1.74	       179	      3890	      1059	    151.22	     67.58	   1071.22	    704246	      1774.53	      8.71	
   3340.00	     11.56	     11588	     37.54	      8.60	      8.63	      26.4	      31.2	      1.72	       178	      3960	      1059	    151.26	     67.62	   1071.74	    704681	      1808.80	      8.71	
   3340.50	     11.78	      9289	     38.44	      8.60	      8.56	      27.2	      30.9	      1.72	       178	      3886	      1059	    151.30	     67.67	   1072.22	    705136	      1858.22	      8.71	
   3341.00	     10.72	      7808	     33.79	      8.60	      8.61	      28.0	      31.1	      1.78	       175	      3809	      1057	    151.37	     67.73	   1072.64	    705833	      1853.69	      8.71	
