~VERSION INFORMATION
VERS.    2.0:   CWLS LOG ASCII STANDARD - VERSION 2.0
WRAP.     NO:   ONE LINE PER STEP
~WELL INFORMATION BLOCK
#MNEM.UNIT      DATA                  DESCRIPTION OF MNEMONIC
#----   --------             ---------------
STRT.m  508.00                   :START DEPTH
STOP.m  5287.00                   :STOP DEPTH
STEP.m  0.50                   :STEP VALUE
NULL.  -999.25                   :NULL VALUE
COMP.   CONOCOPHILLIPS                   :COMPANY NAME
WELL.   Poseidon North-1                   :WELL NAME
FLD .   BROWSE                   :FIELD NAME
LOC .                      :LOCATION
PROV.                      :PROVINCE
SRVC.   Geoservices                   :SERVICE COMPANY NAME
DATE.   05-06-2014 01:42:56                   :DATE
UWI .                      :UNIQUE WELL IDENTIFIER
~PARAMETER INFORMATION
~CURVE INFORMATION
#MNEM.UNIT       API CODE        CURVE DESCRIPTION
#----   -------- ------------------
 .m        :
ROP Offline .m/h        :ROP Offline
Surface Torque .lbf.ft        :Surface Torque
Weight On Bit Driller .klbm        :Weight On Bit Driller
Mud Weight In .ppg        :Mud Weight In
Mud Weight Out .ppg        :Mud Weight Out
Temperature In .degC        :Temperature In
Temperature Out .degC        :Temperature Out
D-Exponent .Euc        :D-Exponent
Total RPM [Surface + DHM] .1/min        :Total RPM [Surface + DHM]
Stand Pipe Pressure .psi        :Stand Pipe Pressure
Pump flow .gpm        :Pump flow
TotalRotaryTime .h        :TotalRotaryTime
Bit Time .h        :Bit Time
Bit Run .m        :Bit Run
TotalCumRevOnBottom .Euc        :TotalCumRevOnBottom
Sum All Pits .bbl        :Sum All Pits
ECD .ppg        :ECD
#
#-----------------------------------------------------------
#  (m)   ROP Offline (m/h)   Surface Torque (lbf.ft)   Weight On Bit Driller (klbm)   Mud Weight In (ppg)   Mud Weight Out (ppg)   Temperature In (degC)   Temperature Out (degC)   D-Exponent (Euc)   Total RPM [Surface + DHM] (1/min)   Stand Pipe Pressure (psi)   Pump flow (gpm)   TotalRotaryTime (h)   Bit Time (h)   Bit Run (m)   TotalCumRevOnBottom (Euc)   Sum All Pits (bbl)   ECD (ppg)
#-----------------------------------------------------------
~A
# ...
   1768.00	     18.98	     14430	     18.07	      8.60	      0.25	      32.7	      38.0	      1.19	       177	      3486	      1119	     19.92	     14.40	    417.79	    134079	      2336.14	      8.62	
   1768.50	     21.89	      9256	     17.86	      8.60	      0.25	      32.7	      38.1	      1.15	       178	      3395	      1119	     19.94	     14.42	    418.25	    134283	      2335.28	      8.62	
   1769.00	     16.94	     12005	     17.15	      8.60	      0.25	      32.7	      38.0	      1.20	       177	      3207	      1114	     19.98	     14.46	    418.76	    134697	      2271.38	      8.62	
   1769.50	     22.76	      7301	     18.63	      8.60	      0.25	      32.7	      38.0	      1.15	       178	      2979	      1112	     20.00	     14.47	    419.27	    134895	      2289.31	      8.62	
   1770.00	     45.80	      6973	     17.24	      8.60	      0.25	      32.7	      38.1	      0.98	       178	      2646	      1110	     20.01	     14.48	    419.75	    135001	      2299.93	      8.62	
   1770.50	     41.48	      4556	     16.10	      8.60	      0.25	      32.7	      38.2	      1.02	       174	      2434	      1094	     20.03	     14.50	    420.28	    135165	      2315.36	      8.62	
   1771.00	     21.36	     10359	     18.50	      8.60	      0.25	      32.7	      38.2	      1.14	       176	      2939	      1106	     20.05	     14.53	    420.78	    135479	      2335.38	      8.62	
   1771.50	     21.47	     12245	     17.38	      8.60	      0.25	      32.7	      38.0	      1.14	       179	      3396	      1115	     20.07	     14.55	    421.26	    135662	      2336.24	      8.62	
   1772.00	     21.05	      6367	     17.37	      8.60	      0.25	      32.7	      38.1	      1.15	       177	      3363	      1118	     20.10	     14.58	    421.78	    135971	      2336.17	      8.62	
   1772.50	     29.68	      7482	     17.55	      8.60	      0.25	      32.7	      38.2	      1.07	       177	      3347	      1119	     20.11	     14.59	    422.27	    136119	      2336.23	      8.62	
   1773.00	     34.43	      6238	     17.12	      8.60	      0.25	      32.7	      38.1	      1.06	       178	      3293	      1117	     20.13	     14.60	    422.76	    136277	      2335.75	      8.62	
   1773.50	     28.14	      5472	     17.46	      8.60	      0.25	      32.7	      38.1	      1.08	       179	      3278	      1118	     20.15	     14.62	    423.27	    136499	      2336.92	      8.62	
   1774.00	     30.41	      3301	     17.28	      8.60	      0.25	      32.8	      38.1	      1.08	       179	      3247	      1119	     20.16	     14.64	    423.80	    136648	      2337.57	      8.62	
   1774.50	     22.18	      6287	     17.66	      8.60	      0.25	      32.7	      38.1	      1.14	       177	      3316	      1118	     20.19	     14.67	    424.27	    136945	      2327.83	      8.62	
   1775.00	     24.84	     10800	      9.46	      8.60	      0.25	      32.7	      38.0	      1.05	       177	      3500	      1122	     20.21	     14.69	    424.78	    137185	      2336.54	      8.62	
   1775.50	     30.11	      8274	     10.52	      8.60	      0.25	      32.7	      38.0	      0.95	       179	      3399	      1119	     20.23	     14.70	    425.29	    137339	      2335.99	      8.62	
   1776.00	     40.66	      6306	     10.89	      8.60	      0.25	      32.7	      38.1	      0.90	       178	      3316	      1119	     20.24	     14.71	    425.78	    137461	      2335.58	      8.62	
   1776.50	     42.60	      5895	     10.16	      8.60	      0.25	      32.7	      38.0	      0.91	       177	      3262	      1116	     20.25	     14.73	    426.27	    137604	      2336.60	      8.62	
   1777.00	     23.29	      5939	     10.16	      8.60	      0.25	      32.7	      38.0	      1.01	       178	      3323	      1117	     20.28	     14.76	    426.82	    137904	      2335.74	      8.62	
   1777.50	     19.69	      6807	      9.35	      8.60	      0.25	      32.7	      38.0	      1.02	       178	      3351	      1117	     20.31	     14.78	    427.27	    138171	      2337.17	      8.62	
   1778.00	     34.99	      6664	      9.35	      8.60	      0.25	      32.8	      37.9	      0.93	       177	      3325	      1120	     20.32	     14.79	    427.78	    138317	      2336.74	      8.62	
   1778.50	     45.80	      5553	      9.09	      8.60	      0.25	      32.6	      38.0	      0.84	       178	      3269	      1116	     20.33	     14.80	    428.30	    138415	      2336.72	      8.62	
   1779.00	     51.38	      4953	      9.46	      8.60	      0.25	      32.7	      38.0	      0.83	       179	      3217	      1116	     20.34	     14.81	    428.75	    138510	      2337.93	      8.62	
   1779.50	     45.92	     10492	      9.67	      8.60	      0.25	      32.7	      38.0	      0.88	       177	      3320	      1117	     20.35	     14.82	    429.26	    138625	      2338.02	      8.62	
   1780.00	     32.55	      6440	      8.49	      8.60	      0.25	      32.7	      37.9	      0.91	       179	      3260	      1116	     20.37	     14.84	    429.77	    138826	      2312.43	      8.62	
   1780.50	     31.69	     12546	      9.19	      8.60	      0.25	      32.7	      38.0	      0.94	       177	      3340	      1117	     20.39	     14.86	    430.27	    139009	      2276.07	      8.62	
   1781.00	     21.96	      9536	      8.32	      8.60	      0.25	      32.8	      37.8	      0.98	       177	      3265	      1116	     20.41	     14.88	    430.75	    139265	      2229.89	      8.62	
   1781.50	     22.68	     12194	      7.73	      8.60	      0.25	      32.8	      37.8	      0.97	       177	      3462	      1120	     20.43	     14.91	    431.31	    139501	      2201.13	      8.62	
   1782.00	     20.53	     12577	      7.61	      8.60	      0.25	      32.8	      37.9	      0.98	       168	      3368	      1082	     20.45	     14.93	    431.74	    139734	      2205.80	      8.62	
   1782.50	     17.28	     10660	      5.72	      8.60	      0.25	      32.8	      37.8	      1.02	       176	      3360	      1115	     21.03	     14.98	    432.30	    140257	      2296.83	      8.62	
   1783.00	     22.16	      8991	      5.69	      8.60	      0.25	      32.8	      37.7	      0.93	       175	      3455	      1120	     21.05	     15.00	    432.77	    140392	      2316.93	      8.62	
   1783.50	     38.44	      9731	      6.28	      8.60	      0.25	      32.8	      37.8	      0.78	       177	      3404	      1116	     21.06	     15.01	    433.25	    140515	      2317.63	      8.62	
   1784.00	     54.72	     10469	      6.25	      8.60	      0.25	      32.8	      37.7	      0.74	       175	      3375	      1116	     21.07	     15.02	    433.80	    140618	      2307.10	      8.62	
   1784.50	     52.95	     16262	      6.02	      8.60	      0.25	      32.8	      37.7	      0.77	       175	      3498	      1111	     21.07	     15.03	    434.24	    140694	      2306.53	      8.62	
   1785.00	     24.00	     10081	      3.81	      8.60	      0.25	      32.8	      37.7	      0.83	       176	      3344	      1112	     21.11	     15.06	    434.80	    141006	      2306.19	      8.62	
   1785.50	     22.43	      8956	      4.00	      8.60	      0.25	      32.7	      37.7	      0.94	       176	      3359	      1114	     21.13	     15.08	    435.28	    141227	      2301.86	      8.62	
   1786.00	     20.53	     10934	      8.78	      8.60	      0.25	      32.8	      37.7	      0.99	       176	      3406	      1113	     21.16	     15.11	    435.75	    141535	      2333.66	      8.62	
   1786.50	     25.10	      8778	      9.23	      8.60	      0.25	      32.7	      37.7	      0.87	       176	      3165	      1110	     21.17	     15.12	    436.24	    141661	      2319.67	      8.62	
   1787.00	     48.23	      6777	      8.90	      8.60	      0.25	      32.7	      37.7	      0.84	       175	      3032	      1108	     21.18	     15.13	    436.77	    141770	      2303.32	      8.62	
   1787.50	     44.88	      8686	      8.33	      8.60	      0.25	      32.8	      37.6	      0.90	       176	      2958	      1105	     21.20	     15.14	    437.25	    141943	      2286.73	      8.62	
