~VERSION INFORMATION
VERS.    2.0:   CWLS LOG ASCII STANDARD - VERSION 2.0
WRAP.     NO:   ONE LINE PER STEP
~WELL INFORMATION BLOCK
#MNEM.UNIT      DATA                  DESCRIPTION OF MNEMONIC
#----   --------             ---------------
STRT.m  508.00                   :START DEPTH
STOP.m  5287.00                   :STOP DEPTH
STEP.m  0.50                   :STEP VALUE
NULL.  -999.25                   :NULL VALUE
COMP.   CONOCOPHILLIPS                   :COMPANY NAME
WELL.   Poseidon North-1                   :WELL NAME
FLD .   BROWSE                   :FIELD NAME
LOC .                      :LOCATION
PROV.                      :PROVINCE
SRVC.   Geoservices                   :SERVICE COMPANY NAME
DATE.   05-06-2014 01:42:56                   :DATE
UWI .                      :UNIQUE WELL IDENTIFIER
~PARAMETER INFORMATION
~CURVE INFORMATION
#MNEM.UNIT       API CODE        CURVE DESCRIPTION
#----   -------- ------------------
 .m        :
ROP Offline .m/h        :ROP Offline
Surface Torque .lbf.ft        :Surface Torque
Weight On Bit Driller .klbm        :Weight On Bit Driller
Mud Weight In .ppg        :Mud Weight In
Mud Weight Out .ppg        :Mud Weight Out
Temperature In .degC        :Temperature In
Temperature Out .degC        :Temperature Out
D-Exponent .Euc        :D-Exponent
Total RPM [Surface + DHM] .1/min        :Total RPM [Surface + DHM]
Stand Pipe Pressure .psi        :Stand Pipe Pressure
Pump flow .gpm        :Pump flow
TotalRotaryTime .h        :TotalRotaryTime
Bit Time .h        :Bit Time
Bit Run .m        :Bit Run
TotalCumRevOnBottom .Euc        :TotalCumRevOnBottom
Sum All Pits .bbl        :Sum All Pits
ECD .ppg        :ECD
#
#-----------------------------------------------------------
#  (m)   ROP Offline (m/h)   Surface Torque (lbf.ft)   Weight On Bit Driller (klbm)   Mud Weight In (ppg)   Mud Weight Out (ppg)   Temperature In (degC)   Temperature Out (degC)   D-Exponent (Euc)   Total RPM [Surface + DHM] (1/min)   Stand Pipe Pressure (psi)   Pump flow (gpm)   TotalRotaryTime (h)   Bit Time (h)   Bit Run (m)   TotalCumRevOnBottom (Euc)   Sum All Pits (bbl)   ECD (ppg)
#-----------------------------------------------------------
~A
# ...
   3688.00	     23.29	     11846	     23.14	      8.60	      8.93	      28.9	      30.2	      1.27	       153	      3193	       879	     79.23	     62.55	    587.35	    563063	      1928.77	      8.63	
   3688.50	     25.38	      9662	     24.68	      8.60	      8.94	      29.5	      30.1	      1.25	       154	      3116	       881	     79.26	     62.58	    587.81	    563280	      1922.08	      8.63	
   3689.00	     20.87	     11686	     21.76	      8.60	      8.95	      30.0	      29.9	      1.30	       153	      3240	       878	     79.27	     62.59	    588.37	    563444	      1900.55	      8.63	
   3689.50	     16.50	      6914	     21.53	      8.60	      8.96	      30.8	      29.8	      1.36	       154	      3219	       879	     79.31	     62.63	    588.87	    563782	      1841.19	      8.63	
   3690.00	     17.91	      9452	     17.54	      8.60	      9.01	      28.8	      33.9	      1.29	       153	      3119	       879	     79.34	     62.65	    589.36	    564005	      1794.94	      8.63	
   3690.50	     22.21	     11015	     17.26	      8.60	      9.01	      28.5	      34.4	      1.21	       153	      3165	       877	     79.36	     62.68	    589.88	    564199	      1841.65	      8.63	
   3691.00	     20.28	      9805	     18.77	      8.60	      9.01	      28.1	      34.0	      1.25	       153	      3097	       879	     79.39	     62.71	    590.35	    564473	      1875.57	      8.63	
   3691.50	     22.83	     11281	     19.33	      8.60	      9.00	      27.8	      33.5	      1.21	       153	      3165	       878	     79.40	     62.72	    590.86	    564644	      1891.76	      8.63	
   3692.00	     25.74	     11938	     23.64	      8.60	      8.99	      27.3	      32.9	      1.23	       153	      3167	       877	     79.43	     62.75	    591.40	    564848	      1912.33	      8.63	
   3692.50	     23.84	     11139	     23.86	      8.60	      8.94	      27.3	      32.2	      1.27	       153	      3147	       878	     79.45	     62.77	    591.90	    565045	      1932.23	      8.63	
   3693.00	     28.41	     11644	     23.51	      8.60	      8.89	      27.3	      31.3	      1.23	       153	      3181	       877	     79.47	     62.79	    592.38	    565208	      1962.05	      8.63	
   3693.50	     26.92	     11790	     25.31	      8.60	      8.88	      27.2	      30.9	      1.25	       153	      3181	       877	     79.48	     62.80	    592.84	    565372	      1959.76	      8.63	
   3694.00	     25.22	     12380	     24.22	      8.60	      8.89	      27.1	      30.7	      1.28	       153	      3194	       876	     79.50	     62.82	    593.39	    565550	      1947.20	      8.63	
   3694.50	     25.40	     11262	     25.21	      8.60	      8.90	      27.0	      30.8	      1.26	       153	      3147	       877	     79.52	     62.84	    593.88	    565744	      1945.50	      8.63	
   3695.00	     26.52	     12567	     25.00	      8.60	      8.89	      26.9	      30.5	      1.27	       153	      3183	       876	     79.54	     62.86	    594.35	    565895	      1916.04	      8.63	
   3695.50	     22.28	     10026	     23.92	      8.60	      8.94	      26.8	      30.5	      1.33	       154	      3122	       878	     79.57	     62.89	    594.88	    566168	      1888.77	      8.63	
   3696.00	     22.31	     10467	     24.78	      8.60	      8.95	      26.8	      30.5	      1.30	       153	      3150	       878	     79.59	     62.91	    595.36	    566363	      1877.19	      8.63	
   3696.50	     25.32	     10978	     24.80	      8.60	      8.96	      26.8	      30.4	      1.25	       153	      3157	       878	     79.61	     62.93	    595.86	    566509	      1829.98	      8.63	
   3697.00	     24.68	     10528	     24.30	      8.60	      8.97	      26.7	      30.3	      1.30	       153	      3149	       878	     79.63	     62.95	    596.34	    566718	      1789.28	      8.63	
   3697.50	     19.54	     10067	     24.77	      8.60	      8.98	      26.7	      30.3	      1.43	       154	      3127	       879	     79.65	     62.97	    596.89	    566938	      1743.39	      8.63	
   3698.00	     19.06	      9857	     24.18	      8.60	      8.99	      26.7	      30.3	      1.34	       153	      3068	       880	     79.69	     63.01	    597.39	    567299	      1709.60	      8.63	
   3698.50	     29.20	     11421	     25.40	      8.60	      9.00	      26.7	      30.3	      1.29	       154	      3135	       878	     79.71	     63.03	    597.87	    567450	      1718.47	      8.63	
   3699.00	     14.58	      6014	     10.66	      8.60	      8.97	      31.6	      34.3	      1.35	       156	      2948	       894	     79.76	     63.08	    598.34	    567920	      1962.36	      8.62	
   3699.50	     14.49	     10411	     17.29	      8.60	      8.96	      31.9	      33.8	      1.17	       153	      3138	       881	     79.78	     63.09	    598.88	    568038	      1959.66	      8.62	
   3700.00	     31.87	     10697	     19.86	      8.60	      8.97	      32.4	      33.5	      1.15	       153	      3190	       881	     79.79	     63.11	    599.38	    568213	      1973.92	      8.62	
   3700.50	     28.65	     11114	     19.98	      8.60	      8.98	      32.6	      33.4	      1.27	       153	      3227	       880	     79.81	     63.13	    599.86	    568394	      1973.21	      8.62	
   3701.00	     18.22	     11288	     19.76	      8.60	      8.98	      33.6	      32.9	      1.30	       153	      3216	       880	     79.84	     63.16	    600.36	    568645	      1965.73	      8.62	
   3701.50	     18.39	     12329	     19.93	      8.60	      8.99	      33.5	      31.9	      1.30	       153	      3218	       880	     79.87	     63.19	    600.89	    568893	      1921.85	      8.62	
   3702.00	     20.56	     10478	     22.97	      8.60	      8.98	      33.4	      31.0	      1.29	       153	      3186	       881	     79.90	     63.22	    601.37	    569150	      1878.24	      8.62	
   3702.50	     21.91	     10732	     24.25	      8.60	      9.04	      33.4	      30.9	      1.28	       153	      3212	       881	     79.92	     63.24	    601.86	    569355	      1839.76	      8.62	
   3703.00	     22.36	     11994	     23.71	      8.60	      9.05	      32.2	      30.9	      1.33	       153	      3199	       881	     79.94	     63.26	    602.37	    569538	      1807.48	      8.62	
   3703.50	     19.95	     11737	     24.33	      8.60	      9.06	      29.4	      31.1	      1.39	       153	      3155	       881	     79.97	     63.28	    602.82	    569786	      1784.17	      8.62	
   3704.00	     15.74	     10294	     24.86	      8.60	      9.04	      28.6	      31.7	      1.41	       154	      3158	       881	     80.00	     63.32	    603.28	    570095	      1739.72	      8.62	
   3704.50	     18.18	     11222	     25.48	      8.60	      9.05	      28.2	      31.1	      1.32	       153	      3167	       881	     80.03	     63.34	    603.86	    570334	      1727.63	      8.62	
   3705.00	     20.23	      9521	     22.82	      8.60	      8.97	      27.9	      30.1	      1.32	       154	      3123	       882	     80.05	     63.37	    604.37	    570572	      1755.89	      8.62	
   3705.50	     20.16	     11427	     24.64	      8.60	      8.91	      27.6	      29.9	      1.37	       153	      3170	       880	     80.08	     63.40	    604.89	    570858	      1795.37	      8.62	
   3706.00	     17.23	     12689	     22.82	      8.60	      8.91	      27.4	      29.3	      1.35	       153	      3212	       879	     80.11	     63.43	    605.37	    571092	      1824.70	      8.62	
   3706.50	     18.85	     12700	     23.52	      8.60	      8.92	      27.2	      29.3	      1.34	       152	      3225	       880	     80.13	     63.45	    605.88	    571301	      1839.21	      8.62	
   3707.00	     18.38	     12134	     24.46	      8.60	      8.94	      27.0	      29.1	      1.38	       153	      3201	       880	     80.16	     63.48	    606.34	    571566	      1872.17	      8.62	
   3707.50	     20.87	     12686	     25.06	      8.60	      8.97	      26.9	      29.0	      1.29	       153	      3210	       879	     80.18	     63.50	    606.88	    571770	      1894.82	      8.62	
