~VERSION INFORMATION
VERS.    2.0:   CWLS LOG ASCII STANDARD - VERSION 2.0
WRAP.     NO:   ONE LINE PER STEP
~WELL INFORMATION BLOCK
#MNEM.UNIT      DATA                  DESCRIPTION OF MNEMONIC
#----   --------             ---------------
STRT.m  508.00                   :START DEPTH
STOP.m  5287.00                   :STOP DEPTH
STEP.m  0.50                   :STEP VALUE
NULL.  -999.25                   :NULL VALUE
COMP.   CONOCOPHILLIPS                   :COMPANY NAME
WELL.   Poseidon North-1                   :WELL NAME
FLD .   BROWSE                   :FIELD NAME
LOC .                      :LOCATION
PROV.                      :PROVINCE
SRVC.   Geoservices                   :SERVICE COMPANY NAME
DATE.   05-06-2014 01:42:56                   :DATE
UWI .                      :UNIQUE WELL IDENTIFIER
~PARAMETER INFORMATION
~CURVE INFORMATION
#MNEM.UNIT       API CODE        CURVE DESCRIPTION
#----   -------- ------------------
 .m        :
ROP Offline .m/h        :ROP Offline
Surface Torque .lbf.ft        :Surface Torque
Weight On Bit Driller .klbm        :Weight On Bit Driller
Mud Weight In .ppg        :Mud Weight In
Mud Weight Out .ppg        :Mud Weight Out
Temperature In .degC        :Temperature In
Temperature Out .degC        :Temperature Out
D-Exponent .Euc        :D-Exponent
Total RPM [Surface + DHM] .1/min        :Total RPM [Surface + DHM]
Stand Pipe Pressure .psi        :Stand Pipe Pressure
Pump flow .gpm        :Pump flow
TotalRotaryTime .h        :TotalRotaryTime
Bit Time .h        :Bit Time
Bit Run .m        :Bit Run
TotalCumRevOnBottom .Euc        :TotalCumRevOnBottom
Sum All Pits .bbl        :Sum All Pits
ECD .ppg        :ECD
#
#-----------------------------------------------------------
#  (m)   ROP Offline (m/h)   Surface Torque (lbf.ft)   Weight On Bit Driller (klbm)   Mud Weight In (ppg)   Mud Weight Out (ppg)   Temperature In (degC)   Temperature Out (degC)   D-Exponent (Euc)   Total RPM [Surface + DHM] (1/min)   Stand Pipe Pressure (psi)   Pump flow (gpm)   TotalRotaryTime (h)   Bit Time (h)   Bit Run (m)   TotalCumRevOnBottom (Euc)   Sum All Pits (bbl)   ECD (ppg)
#-----------------------------------------------------------
~A
# ...
   3048.00	      7.63	      8885	     43.14	      8.60	      8.87	      26.3	      32.4	      1.86	       149	      3615	      1023	     59.73	     39.96	    631.74	    358446	      1774.66	      8.65	
   3048.50	      7.42	      9436	     46.91	      8.60	      8.87	      26.3	      32.1	      1.90	       155	      3604	      1022	     59.80	     40.03	    632.29	    359079	      1760.84	      8.65	
   3049.00	      9.21	      9301	     46.74	      8.60	      8.81	      26.3	      32.1	      1.87	       155	      3602	      1022	     59.85	     40.08	    632.74	    359538	      1834.51	      8.65	
   3049.50	      8.47	      9108	     47.99	      8.60	      8.84	      28.3	      31.8	      1.92	       156	      3670	      1023	     59.92	     40.16	    633.27	    360224	      1946.04	      8.65	
   3050.00	      7.15	      6665	     47.63	      8.60	      2.53	      28.7	      34.6	      1.96	       134	      3835	      1025	     59.99	     40.22	    633.75	    360848	      1971.03	      8.65	
   3050.50	      6.85	      7134	     38.39	      8.60	      8.99	      31.0	      37.1	      1.92	       134	      3607	      1021	     60.06	     40.30	    634.28	    361476	      1893.73	      8.65	
   3051.00	      7.84	      7829	     40.38	      8.60	      8.99	      28.9	      32.0	      1.82	       161	      3586	      1021	     60.14	     40.37	    634.77	    362045	      1818.34	      8.65	
   3051.50	      9.04	      9765	     39.62	      8.60	      8.96	      28.1	      30.2	      1.77	       158	      3588	      1020	     60.19	     40.43	    635.25	    362592	      1761.94	      8.65	
   3052.00	      8.65	     10023	     39.67	      8.60	      8.91	      27.6	      29.6	      1.80	       158	      3627	      1020	     60.24	     40.47	    635.77	    362998	      1766.74	      8.65	
   3052.50	      9.60	      9681	     39.78	      8.60	      8.93	      27.1	      29.0	      1.77	       158	      3599	      1020	     60.30	     40.54	    636.27	    363651	      1850.88	      8.65	
   3053.00	      8.52	      7350	     39.45	      8.60	      8.96	      26.9	      29.0	      1.80	       158	      3615	      1021	     60.35	     40.59	    636.76	    364104	      1919.37	      8.65	
   3053.50	      7.85	      8269	     40.52	      8.60	      8.98	      26.6	      30.1	      1.83	       159	      3578	      1020	     60.43	     40.67	    637.21	    364845	      1970.83	      8.65	
   3054.00	      6.69	      9371	     40.04	      8.60	      8.98	      26.5	      31.5	      1.90	       158	      3619	      1020	     60.50	     40.74	    637.77	    365530	      1919.09	      8.65	
   3054.50	      6.89	      9510	     39.60	      8.60	      8.99	      26.4	      31.8	      1.89	       158	      3620	      1020	     60.57	     40.81	    638.28	    366200	      1798.96	      8.65	
   3055.00	     10.00	      8703	     37.92	      8.60	      8.99	      26.4	      32.3	      1.76	       158	      3574	      1020	     60.64	     40.87	    638.73	    366806	      1777.12	      8.65	
   3055.50	      8.27	      9587	     40.26	      8.60	      8.93	      26.2	      32.5	      1.84	       158	      3565	      1020	     60.72	     40.96	    639.25	    367606	      1901.70	      8.65	
   3056.00	      4.82	      6702	     18.20	      8.60	      8.92	      29.0	      25.2	      1.92	       158	      3425	      1015	     61.44	     41.07	    639.77	    368678	      1934.91	      8.65	
   3056.50	     12.54	      9089	     28.96	      8.60	      8.93	      29.0	      24.6	      1.65	       157	      3524	      1016	     61.47	     41.10	    640.26	    368965	      1933.64	      8.65	
   3057.00	     18.20	     12349	     42.27	      8.60	      8.91	      29.0	      24.6	      1.52	       157	      3682	      1018	     61.50	     41.14	    640.73	    369304	      1934.65	      8.65	
   3057.50	     17.52	     13281	     42.36	      8.60	      8.87	      29.0	      25.5	      1.60	       157	      3710	      1018	     61.52	     41.16	    641.28	    369487	      1928.34	      8.65	
   3058.00	     17.25	     11347	     41.96	      8.60	      8.91	      29.0	      26.4	      1.62	       158	      3654	      1017	     61.56	     41.19	    641.73	    369783	      1943.34	      8.65	
   3058.50	     15.36	     10254	     42.24	      8.60	      8.93	      29.0	      27.5	      1.65	       158	      3616	      1017	     61.60	     41.23	    642.24	    370174	      1934.76	      8.65	
   3059.00	     17.22	     11459	     41.22	      8.60	      8.92	      29.0	      27.8	      1.62	       157	      3664	      1017	     61.62	     41.25	    642.75	    370371	      1939.82	      8.65	
   3059.50	     20.98	     12187	     39.14	      8.60	      8.92	      29.0	      28.0	      1.55	       157	      3673	      1016	     61.65	     41.28	    643.24	    370635	      1913.68	      8.65	
   3060.00	     25.07	     11634	     39.67	      8.60	      8.94	      28.9	      27.7	      1.48	       158	      3678	      1017	     61.66	     41.29	    643.75	    370772	      1881.62	      8.65	
   3060.50	     26.29	     10877	     38.64	      8.60	      8.93	      28.9	      28.3	      1.45	       158	      3678	      1018	     61.68	     41.32	    644.23	    370968	      1861.25	      8.65	
   3061.00	     20.90	     10928	     39.15	      8.60	      8.93	      28.9	      28.2	      1.53	       157	      3620	      1016	     61.70	     41.34	    644.74	    371162	      1834.84	      8.65	
   3061.50	     15.49	     12074	     38.84	      8.60	      8.92	      28.5	      28.2	      1.62	       157	      3634	      1016	     61.74	     41.38	    645.24	    371544	      1754.58	      8.65	
   3062.00	     14.63	     13346	     38.84	      8.60	      8.93	      28.0	      28.5	      1.63	       157	      3601	      1015	     61.77	     41.41	    645.75	    371830	      1783.48	      8.65	
   3062.50	     14.55	     10579	     39.70	      8.60	      8.94	      27.3	      28.5	      1.64	       158	      3604	      1016	     61.82	     41.45	    646.24	    372246	      1838.43	      8.65	
   3063.00	      9.69	     11777	     39.73	      8.60	      8.94	      26.9	      28.7	      1.72	       157	      3586	      1016	     61.86	     41.49	    646.76	    372629	      1886.02	      8.65	
   3063.50	     12.28	      5410	     22.00	      8.60	      8.93	      26.0	      28.9	      1.31	       132	      2684	       880	     63.77	     41.54	    647.25	    373079	      1849.98	      8.64	
   3064.00	     20.14	      9535	     24.46	      8.60	      8.93	      26.0	      28.5	      1.04	       133	      2898	       883	     63.77	     41.55	    647.73	    373136	      1836.22	      8.64	
   3064.50	     18.04	     12217	     32.63	      8.60	      8.92	      26.0	      28.5	      1.18	       132	      2941	       883	     63.79	     41.56	    648.21	    373271	      1806.07	      8.64	
   3065.00	     19.03	     14410	     33.79	      8.60	      8.92	      26.0	      28.5	      1.20	       131	      3043	       886	     63.80	     41.57	    648.77	    373321	      1795.21	      8.64	
   3065.50	     25.71	     10233	     32.62	      8.60	      8.91	      26.0	      28.3	      1.31	       132	      2902	       881	     63.82	     41.59	    649.23	    373504	      1758.79	      8.64	
   3066.00	     22.62	      6872	     28.50	      8.60	      8.92	      26.2	      27.9	      1.28	       132	      2740	       879	     63.84	     41.61	    649.75	    373655	      1723.74	      8.64	
   3066.50	     21.20	      7494	     10.24	      8.60	      8.91	      26.2	      28.1	      1.20	       133	      2786	       879	     63.87	     41.64	    650.24	    373901	      1743.15	      8.64	
   3067.00	     11.59	      8236	     14.11	      8.60	      8.89	      26.2	      28.5	      1.25	       132	      2885	       881	     63.92	     41.69	    650.76	    374300	      1791.98	      8.64	
   3067.50	     11.47	      9033	     15.96	      8.60	      8.92	      26.2	      28.1	      1.33	       131	      2866	       881	     63.96	     41.73	    651.24	    374596	      1831.45	      8.64	
