~VERSION INFORMATION
VERS.    2.0:   CWLS LOG ASCII STANDARD - VERSION 2.0
WRAP.     NO:   ONE LINE PER STEP
~WELL INFORMATION BLOCK
#MNEM.UNIT      DATA                  DESCRIPTION OF MNEMONIC
#----   --------             ---------------
STRT.m  508.00                   :START DEPTH
STOP.m  5287.00                   :STOP DEPTH
STEP.m  0.50                   :STEP VALUE
NULL.  -999.25                   :NULL VALUE
COMP.   CONOCOPHILLIPS                   :COMPANY NAME
WELL.   Poseidon North-1                   :WELL NAME
FLD .   BROWSE                   :FIELD NAME
LOC .                      :LOCATION
PROV.                      :PROVINCE
SRVC.   Geoservices                   :SERVICE COMPANY NAME
DATE.   05-06-2014 01:42:56                   :DATE
UWI .                      :UNIQUE WELL IDENTIFIER
~PARAMETER INFORMATION
~CURVE INFORMATION
#MNEM.UNIT       API CODE        CURVE DESCRIPTION
#----   -------- ------------------
 .m        :
ROP Offline .m/h        :ROP Offline
Surface Torque .lbf.ft        :Surface Torque
Weight On Bit Driller .klbm        :Weight On Bit Driller
Mud Weight In .ppg        :Mud Weight In
Mud Weight Out .ppg        :Mud Weight Out
Temperature In .degC        :Temperature In
Temperature Out .degC        :Temperature Out
D-Exponent .Euc        :D-Exponent
Total RPM [Surface + DHM] .1/min        :Total RPM [Surface + DHM]
Stand Pipe Pressure .psi        :Stand Pipe Pressure
Pump flow .gpm        :Pump flow
TotalRotaryTime .h        :TotalRotaryTime
Bit Time .h        :Bit Time
Bit Run .m        :Bit Run
TotalCumRevOnBottom .Euc        :TotalCumRevOnBottom
Sum All Pits .bbl        :Sum All Pits
ECD .ppg        :ECD
#
#-----------------------------------------------------------
#  (m)   ROP Offline (m/h)   Surface Torque (lbf.ft)   Weight On Bit Driller (klbm)   Mud Weight In (ppg)   Mud Weight Out (ppg)   Temperature In (degC)   Temperature Out (degC)   D-Exponent (Euc)   Total RPM [Surface + DHM] (1/min)   Stand Pipe Pressure (psi)   Pump flow (gpm)   TotalRotaryTime (h)   Bit Time (h)   Bit Run (m)   TotalCumRevOnBottom (Euc)   Sum All Pits (bbl)   ECD (ppg)
#-----------------------------------------------------------
~A
# ...
   2088.00	     14.05	      6916	      8.37	      8.60	      0.25	      32.7	      38.6	      1.06	       186	      3477	      1117	     40.94	     29.77	    737.79	    293775	      2301.81	      8.62	
   2088.50	     13.69	     11039	      8.42	      8.60	      0.25	      32.7	      38.5	      1.08	       200	      3285	      1112	     40.98	     29.80	    738.24	    294169	      2232.79	      8.62	
   2089.00	     10.45	      6705	      8.28	      8.60	      0.25	      32.6	      38.5	      1.13	       186	      3021	      1107	     41.08	     29.87	    738.79	    294890	      2270.80	      8.62	
   2089.50	      9.06	      8419	      8.66	      8.60	      0.25	      32.6	      38.6	      1.16	       187	      3522	      1118	     41.12	     29.91	    739.30	    295421	      2262.02	      8.62	
   2090.00	     11.55	      8380	      8.36	      8.60	      0.25	      32.6	      38.6	      1.12	       187	      3640	      1119	     41.16	     29.95	    739.78	    295845	      2267.15	      8.62	
   2090.50	     13.39	      6961	      8.67	      8.60	      0.25	      32.6	      38.7	      1.10	       186	      3477	      1117	     41.20	     29.99	    740.30	    296318	      2263.14	      8.62	
   2091.00	     14.92	      4701	      9.59	      8.60	      0.25	      32.6	      38.7	      1.08	       186	      3456	      1118	     41.24	     30.03	    740.76	    296692	      2257.25	      8.62	
   2091.50	     16.04	      5025	      8.90	      8.60	      0.25	      32.6	      38.8	      1.07	       188	      3423	      1119	     41.27	     30.06	    741.26	    297029	      2257.45	      8.62	
   2092.00	     13.28	      5155	      9.22	      8.60	      0.25	      32.7	      38.6	      1.12	       198	      3400	      1116	     41.31	     30.10	    741.76	    297481	      2271.24	      8.62	
   2092.50	      9.07	      5494	      9.12	      8.60	      0.25	      32.7	      38.6	      1.19	       189	      3416	      1116	     41.37	     30.16	    742.29	    298148	      2280.14	      8.62	
   2093.00	      8.36	      5396	      9.44	      8.60	      0.25	      32.7	      38.7	      1.21	       187	      3418	      1117	     41.43	     30.22	    742.76	    298827	      2288.05	      8.62	
   2093.50	     11.17	      6690	      9.41	      8.60	      0.25	      32.6	      38.6	      1.15	       186	      3482	      1118	     41.47	     30.26	    743.29	    299346	      2284.49	      8.62	
   2094.00	     10.74	      5513	      9.42	      8.60	      0.25	      32.7	      38.5	      1.16	       187	      3422	      1116	     41.52	     30.31	    743.75	    299853	      2293.36	      8.62	
   2094.50	      9.10	      5591	     10.11	      8.60	      0.25	      32.6	      38.7	      1.20	       186	      3487	      1117	     41.58	     30.37	    744.28	    300548	      2285.72	      8.62	
   2095.00	      8.54	      6068	     10.79	      8.60	      0.25	      32.7	      38.6	      1.22	       185	      3437	      1117	     41.63	     30.42	    744.74	    301124	      2269.77	      8.62	
   2095.50	      9.60	      5572	      9.84	      8.60	      0.25	      32.6	      38.6	      1.20	       183	      3505	      1117	     41.74	     30.48	    745.28	    301809	      2289.43	      8.62	
   2096.00	     11.29	      5961	     10.44	      8.60	      0.25	      32.7	      38.6	      1.16	       184	      3420	      1116	     41.79	     30.53	    745.75	    302319	      2271.62	      8.62	
   2096.50	     12.74	      8218	      9.68	      8.60	      0.25	      32.7	      38.8	      1.14	       184	      3587	      1118	     41.82	     30.56	    746.28	    302695	      2296.95	      8.62	
   2097.00	     15.63	      6006	     10.14	      8.60	      0.25	      32.6	      38.7	      1.09	       183	      3506	      1118	     41.85	     30.60	    746.75	    303035	      2294.93	      8.62	
   2097.50	     15.09	      6668	      9.53	      8.60	      0.25	      32.7	      38.8	      1.11	       183	      3507	      1116	     41.89	     30.64	    747.27	    303476	      2277.45	      8.62	
   2098.00	     14.29	      6173	     10.56	      8.60	      0.25	      32.7	      38.7	      1.11	       183	      3575	      1118	     41.93	     30.67	    747.80	    303853	      2289.13	      8.62	
   2098.50	     16.40	      7035	      9.84	      8.60	      0.25	      32.7	      38.7	      1.08	       184	      3574	      1120	     41.96	     30.70	    748.28	    304194	      2238.63	      8.62	
   2099.00	     14.84	      5842	     10.77	      8.60	      0.25	      32.7	      38.8	      1.11	       182	      3433	      1116	     41.99	     30.74	    748.81	    304586	      2247.21	      8.62	
   2099.50	     11.22	      6317	      9.02	      8.60	      0.25	      32.6	      38.6	      1.15	       185	      3372	      1102	     42.61	     30.79	    749.26	    305098	      2305.57	      8.62	
   2100.00	     11.14	     10134	      7.49	      8.60	      0.25	      32.7	      38.5	      1.11	       184	      3270	      1100	     42.65	     30.83	    749.80	    305565	      2336.55	      8.62	
   2100.50	     15.00	      5589	      7.84	      8.60	      0.25	      32.6	      38.7	      1.04	       192	      3336	      1100	     42.68	     30.86	    750.24	    305860	      2323.52	      8.62	
   2101.00	     18.29	     10336	      7.13	      8.60	      0.25	      32.7	      38.6	      1.00	       189	      3432	      1102	     42.70	     30.88	    750.78	    306115	      2319.31	      8.62	
   2101.50	     16.43	      9328	      7.05	      8.60	      0.25	      32.7	      38.6	      1.03	       194	      3410	      1102	     42.74	     30.92	    751.29	    306538	      2312.98	      8.62	
   2102.00	     15.94	      5872	      9.29	      8.60	      0.25	      32.7	      38.6	      1.03	       183	      3437	      1103	     42.77	     30.95	    751.79	    306889	      2329.84	      8.62	
   2102.50	     17.97	      9366	      7.70	      8.60	      0.25	      32.6	      38.6	      1.00	       182	      3403	      1102	     42.80	     30.98	    752.25	    307169	      2304.78	      8.62	
   2103.00	     16.63	      7038	      6.90	      8.60	      0.25	      32.7	      38.6	      1.00	       185	      3336	      1100	     42.83	     31.01	    752.78	    307546	      2301.93	      8.62	
   2103.50	     15.72	      8503	      7.83	      8.60	      0.25	      32.6	      38.6	      1.01	       184	      3395	      1101	     42.86	     31.04	    753.29	    307880	      2298.47	      8.62	
   2104.00	     17.52	      8141	      6.73	      8.60	      0.25	      32.7	      38.5	      1.00	       183	      3447	      1104	     42.89	     31.07	    753.82	    308208	      2299.64	      8.62	
   2104.50	     18.19	      8190	      6.84	      8.60	      0.25	      32.7	      38.6	      1.01	       182	      3437	      1102	     42.92	     31.10	    754.28	    308532	      2297.88	      8.62	
   2105.00	     12.63	     10453	      6.96	      8.60	      0.25	      32.6	      38.5	      1.06	       182	      3381	      1101	     42.97	     31.14	    754.78	    309021	      2301.11	      8.62	
   2105.50	     14.02	      8954	      6.10	      8.60	      0.25	      32.6	      38.6	      1.02	       185	      3469	      1102	     43.00	     31.18	    755.26	    309373	      2315.18	      8.62	
   2106.00	     21.06	     11351	      7.04	      8.60	      0.25	      32.7	      38.5	      0.95	       184	      3540	      1103	     43.02	     31.20	    755.79	    309661	      2295.13	      8.62	
   2106.50	     21.14	      6056	      6.09	      8.60	      0.25	      32.6	      38.5	      0.96	       184	      3438	      1103	     43.05	     31.22	    756.27	    309922	      2298.19	      8.62	
   2107.00	     16.04	     11498	      7.46	      8.60	      0.25	      32.7	      38.5	      1.00	       184	      3399	      1101	     43.08	     31.26	    756.81	    310264	      2326.27	      8.62	
   2107.50	     14.09	      9383	      6.48	      8.60	      0.25	      32.7	      38.4	      1.04	       183	      3409	      1102	     43.12	     31.30	    757.27	    310705	      2326.57	      8.62	
