~VERSION INFORMATION
VERS.    2.0:   CWLS LOG ASCII STANDARD - VERSION 2.0
WRAP.     NO:   ONE LINE PER STEP
~WELL INFORMATION BLOCK
#MNEM.UNIT      DATA                  DESCRIPTION OF MNEMONIC
#----   --------             ---------------
STRT.m  508.00                   :START DEPTH
STOP.m  5287.00                   :STOP DEPTH
STEP.m  0.50                   :STEP VALUE
NULL.  -999.25                   :NULL VALUE
COMP.   CONOCOPHILLIPS                   :COMPANY NAME
WELL.   Poseidon North-1                   :WELL NAME
FLD .   BROWSE                   :FIELD NAME
LOC .                      :LOCATION
PROV.                      :PROVINCE
SRVC.   Geoservices                   :SERVICE COMPANY NAME
DATE.   05-06-2014 01:42:56                   :DATE
UWI .                      :UNIQUE WELL IDENTIFIER
~PARAMETER INFORMATION
~CURVE INFORMATION
#MNEM.UNIT       API CODE        CURVE DESCRIPTION
#----   -------- ------------------
 .m        :
ROP Offline .m/h        :ROP Offline
Surface Torque .lbf.ft        :Surface Torque
Weight On Bit Driller .klbm        :Weight On Bit Driller
Mud Weight In .ppg        :Mud Weight In
Mud Weight Out .ppg        :Mud Weight Out
Temperature In .degC        :Temperature In
Temperature Out .degC        :Temperature Out
D-Exponent .Euc        :D-Exponent
Total RPM [Surface + DHM] .1/min        :Total RPM [Surface + DHM]
Stand Pipe Pressure .psi        :Stand Pipe Pressure
Pump flow .gpm        :Pump flow
TotalRotaryTime .h        :TotalRotaryTime
Bit Time .h        :Bit Time
Bit Run .m        :Bit Run
TotalCumRevOnBottom .Euc        :TotalCumRevOnBottom
Sum All Pits .bbl        :Sum All Pits
ECD .ppg        :ECD
#
#-----------------------------------------------------------
#  (m)   ROP Offline (m/h)   Surface Torque (lbf.ft)   Weight On Bit Driller (klbm)   Mud Weight In (ppg)   Mud Weight Out (ppg)   Temperature In (degC)   Temperature Out (degC)   D-Exponent (Euc)   Total RPM [Surface + DHM] (1/min)   Stand Pipe Pressure (psi)   Pump flow (gpm)   TotalRotaryTime (h)   Bit Time (h)   Bit Run (m)   TotalCumRevOnBottom (Euc)   Sum All Pits (bbl)   ECD (ppg)
#-----------------------------------------------------------
~A
# ...
   2728.00	     62.63	     16275	     18.27	      8.60	      9.07	      28.5	      31.3	      0.92	       139	      3022	       890	     28.00	     12.96	    311.50	    129449	      1955.81	      8.64	
   2728.50	     65.02	     14409	     16.47	      8.60	      9.07	      28.5	      31.6	      0.92	       139	      2989	       888	     28.00	     12.97	    312.01	    129512	      1961.44	      8.64	
   2729.00	     62.87	     16824	     20.42	      8.60	      9.07	      28.6	      31.8	      0.98	       139	      3022	       890	     28.01	     12.98	    312.52	    129585	      1957.75	      8.64	
   2729.50	     53.60	     16015	     20.88	      8.60	      9.08	      28.7	      31.9	      1.03	       139	      3009	       891	     28.02	     12.99	    313.04	    129671	      1958.21	      8.64	
   2730.00	     48.88	     14578	     21.37	      8.60	      9.08	      28.8	      32.3	      1.01	       139	      2948	       887	     28.03	     13.00	    313.50	    129750	      1957.20	      8.64	
   2730.50	     51.25	     13464	     20.01	      8.60	      9.07	      28.8	      32.9	      1.02	       139	      3037	       890	     28.04	     13.01	    314.04	    129840	      1956.67	      8.64	
   2731.00	     43.49	     13541	     20.76	      8.60	      9.09	      28.9	      32.5	      1.06	       139	      3028	       890	     28.05	     13.02	    314.55	    129938	      1961.36	      8.64	
   2731.50	     41.24	     13699	     20.14	      8.60	      9.10	      28.9	      32.4	      1.04	       140	      3006	       890	     28.07	     13.03	    315.04	    130040	      1942.61	      8.64	
   2732.00	     48.14	     15258	     20.55	      8.60	      9.09	      28.9	      32.6	      1.04	       139	      2915	       888	     28.08	     13.04	    315.56	    130116	      1927.73	      8.64	
   2732.50	     45.25	     10461	     18.49	      8.60	      9.10	      28.9	      32.5	      1.08	       139	      2792	       882	     28.09	     13.06	    316.00	    130225	      1902.83	      8.64	
   2733.00	     60.58	     12351	     18.11	      8.60	      9.10	      28.9	      32.6	      0.90	       140	      2859	       887	     28.10	     13.06	    316.53	    130286	      1902.31	      8.64	
   2733.50	     51.80	     12269	     20.02	      8.60	      9.10	      28.9	      32.6	      1.13	       140	      3028	       889	     28.11	     13.08	    316.99	    130423	      1874.31	      8.64	
   2734.00	     33.91	     11444	     20.71	      8.60	      9.10	      28.9	      32.4	      1.10	       139	      2923	       885	     28.13	     13.09	    317.58	    130546	      1858.22	      8.64	
   2734.50	     41.31	     10858	     21.23	      8.60	      9.10	      28.9	      32.5	      1.07	       140	      2947	       887	     28.14	     13.10	    317.96	    130630	      1848.27	      8.64	
   2735.00	     44.26	     12077	     21.03	      8.60	      9.09	      28.8	      32.5	      1.05	       140	      2958	       888	     28.15	     13.12	    318.53	    130737	      1827.14	      8.64	
   2735.50	     42.61	     12614	     20.30	      8.60	      9.07	      28.8	      32.8	      1.06	       139	      3007	       887	     28.16	     13.13	    318.99	    130822	      1837.94	      8.64	
   2736.00	     48.16	     14209	     20.69	      8.60	      9.08	      28.6	      32.5	      1.03	       139	      3017	       886	     28.17	     13.14	    319.57	    130911	      1817.76	      8.64	
   2736.50	     51.99	     14186	     21.78	      8.60	      9.08	      28.5	      32.4	      1.00	       139	      2980	       887	     28.18	     13.15	    320.06	    130994	      1791.42	      8.64	
   2737.00	     48.23	     12776	     20.63	      8.60	      9.08	      28.4	      31.9	      1.02	       139	      2980	       888	     28.19	     13.16	    320.53	    131089	      1766.01	      8.64	
   2737.50	     45.74	     11389	     21.07	      8.60	      9.06	      28.2	      32.1	      1.04	       140	      2953	       888	     28.20	     13.17	    321.07	    131180	      1772.98	      8.64	
   2738.00	     49.68	     13361	     21.12	      8.60	      9.03	      28.1	      32.5	      1.02	       140	      3009	       889	     28.21	     13.18	    321.55	    131240	      1777.40	      8.64	
   2738.50	     47.04	     11901	     21.98	      8.60	      9.02	      28.0	      31.8	      1.04	       140	      3092	       891	     28.22	     13.19	    322.04	    131352	      1811.88	      8.64	
   2739.00	     36.04	     14168	     20.74	      8.60	      9.00	      27.8	      31.6	      1.11	       139	      3029	       888	     28.24	     13.21	    322.55	    131478	      1818.58	      8.64	
   2739.50	     27.97	      8915	     21.33	      8.60	      8.98	      27.7	      31.7	      1.17	       141	      3054	       889	     28.26	     13.23	    323.05	    131655	      1827.50	      8.64	
   2740.00	     28.75	      7430	     20.96	      8.60	      9.01	      27.6	      32.0	      1.17	       141	      3104	       892	     28.27	     13.24	    323.53	    131784	      1848.31	      8.64	
   2740.50	     33.07	      8079	     20.63	      8.60	      9.01	      27.5	      33.8	      1.13	       141	      3017	       890	     28.29	     13.26	    324.03	    131906	      1858.59	      8.64	
   2741.00	     33.83	     12752	     21.22	      8.60	      8.96	      27.4	      33.8	      1.12	       139	      2914	       887	     28.31	     13.27	    324.51	    132039	      1886.99	      8.64	
   2741.50	     42.55	     11837	     20.93	      8.60	      9.03	      27.4	      34.3	      1.07	       140	      3011	       888	     28.31	     13.28	    325.04	    132121	      1905.24	      8.64	
   2742.00	     47.12	     10843	     21.80	      8.60	      9.02	      27.3	      34.6	      1.03	       140	      3007	       890	     28.33	     13.29	    325.56	    132217	      1907.53	      8.64	
   2742.50	     39.63	     14558	     21.12	      8.60	      9.03	      27.3	      34.3	      1.08	       140	      3001	       890	     28.34	     13.31	    326.06	    132330	      1924.14	      8.64	
   2743.00	     35.82	     12806	     20.55	      8.60	      9.03	      27.2	      33.9	      1.11	       140	      3015	       888	     28.35	     13.32	    326.54	    132447	      1944.85	      8.64	
   2743.50	     38.39	     11872	     21.04	      8.60	      9.05	      27.2	      33.2	      1.09	       140	      2944	       887	     28.37	     13.33	    327.04	    132551	      1962.39	      8.64	
   2744.00	     41.60	     11804	     22.71	      8.60	      9.05	      27.1	      33.1	      1.07	       139	      2949	       888	     28.38	     13.35	    327.56	    132653	      1973.72	      8.64	
   2744.50	     42.60	     11576	     20.26	      8.60	      9.02	      27.1	      33.4	      1.06	       140	      2945	       887	     28.39	     13.36	    328.07	    132754	      1987.47	      8.64	
   2745.00	     39.88	     12476	     21.50	      8.60	      9.03	      27.0	      32.6	      1.08	       140	      3003	       888	     28.40	     13.37	    328.53	    132853	      1996.31	      8.64	
   2745.50	     30.09	      9209	     22.80	      8.60	      9.05	      26.9	      31.8	      1.17	       140	      2866	       886	     28.42	     13.39	    329.00	    133019	      2022.70	      8.64	
   2746.00	     18.72	      6868	      9.94	      8.60	      8.93	      26.4	      32.3	      1.22	       153	      2811	       902	     28.97	     13.43	    329.59	    133327	      1921.06	      8.64	
   2746.50	     24.45	     12087	     12.41	      8.60	      8.90	      26.5	      32.4	      1.07	       151	      3034	       904	     28.98	     13.44	    329.99	    133406	      1930.17	      8.64	
   2747.00	     37.00	      7385	     12.37	      8.60	      8.89	      26.4	      31.7	      0.99	       152	      2876	       902	     29.00	     13.46	    330.52	    133594	      1952.02	      8.64	
   2747.50	     31.16	      9960	     10.64	      8.60	      8.89	      26.4	      31.5	      1.04	       152	      2924	       903	     29.01	     13.47	    330.96	    133726	      1957.76	      8.64	
