~VERSION INFORMATION
VERS.    2.0:   CWLS LOG ASCII STANDARD - VERSION 2.0
WRAP.     NO:   ONE LINE PER STEP
~WELL INFORMATION BLOCK
#MNEM.UNIT      DATA                  DESCRIPTION OF MNEMONIC
#----   --------             ---------------
STRT.m  508.00                   :START DEPTH
STOP.m  5287.00                   :STOP DEPTH
STEP.m  0.50                   :STEP VALUE
NULL.  -999.25                   :NULL VALUE
COMP.   CONOCOPHILLIPS                   :COMPANY NAME
WELL.   Poseidon North-1                   :WELL NAME
FLD .   BROWSE                   :FIELD NAME
LOC .                      :LOCATION
PROV.                      :PROVINCE
SRVC.   Geoservices                   :SERVICE COMPANY NAME
DATE.   05-06-2014 01:42:56                   :DATE
UWI .                      :UNIQUE WELL IDENTIFIER
~PARAMETER INFORMATION
~CURVE INFORMATION
#MNEM.UNIT       API CODE        CURVE DESCRIPTION
#----   -------- ------------------
 .m        :
ROP Offline .m/h        :ROP Offline
Surface Torque .lbf.ft        :Surface Torque
Weight On Bit Driller .klbm        :Weight On Bit Driller
Mud Weight In .ppg        :Mud Weight In
Mud Weight Out .ppg        :Mud Weight Out
Temperature In .degC        :Temperature In
Temperature Out .degC        :Temperature Out
D-Exponent .Euc        :D-Exponent
Total RPM [Surface + DHM] .1/min        :Total RPM [Surface + DHM]
Stand Pipe Pressure .psi        :Stand Pipe Pressure
Pump flow .gpm        :Pump flow
TotalRotaryTime .h        :TotalRotaryTime
Bit Time .h        :Bit Time
Bit Run .m        :Bit Run
TotalCumRevOnBottom .Euc        :TotalCumRevOnBottom
Sum All Pits .bbl        :Sum All Pits
ECD .ppg        :ECD
#
#-----------------------------------------------------------
#  (m)   ROP Offline (m/h)   Surface Torque (lbf.ft)   Weight On Bit Driller (klbm)   Mud Weight In (ppg)   Mud Weight Out (ppg)   Temperature In (degC)   Temperature Out (degC)   D-Exponent (Euc)   Total RPM [Surface + DHM] (1/min)   Stand Pipe Pressure (psi)   Pump flow (gpm)   TotalRotaryTime (h)   Bit Time (h)   Bit Run (m)   TotalCumRevOnBottom (Euc)   Sum All Pits (bbl)   ECD (ppg)
#-----------------------------------------------------------
~A
# ...
   4008.00	     49.41	      7235	     28.37	     12.50	     12.56	      37.9	      46.1	      0.83	       139	      3673	       503	     11.06	      7.63	    228.83	     65686	      1374.11	     13.15	
   4008.50	     45.33	      4539	     26.71	     12.50	     12.55	      38.0	      46.4	      0.90	       139	      3701	       502	     11.08	      7.65	    229.30	     65828	      1373.39	     13.15	
   4009.00	     27.62	      6721	     25.88	     12.50	     12.56	      38.0	      46.2	      0.95	       139	      3642	       502	     11.09	      7.67	    229.83	     65963	      1375.66	     13.15	
   4009.50	     35.27	      8487	     26.34	     12.50	     12.55	      38.0	      46.3	      0.85	       139	      3723	       502	     11.11	      7.68	    230.32	     66079	      1373.22	     13.15	
   4010.00	     64.29	      8362	     30.29	     12.50	     12.55	      38.0	      46.3	      0.78	       139	      3671	       503	     11.11	      7.69	    230.89	     66134	      1373.42	     13.15	
   4010.50	     57.47	      4792	     23.87	     12.50	     12.55	      38.1	      46.4	      0.84	       139	      3693	       502	     11.13	      7.70	    231.35	     66259	      1373.45	     13.16	
   4011.00	     39.04	      7074	     26.01	     12.50	     12.55	      38.0	      46.4	      0.86	       138	      3707	       502	     11.14	      7.71	    231.81	     66329	      1374.56	     13.15	
   4011.50	     42.57	      5625	     25.73	     12.50	     12.55	      38.0	      46.5	      0.81	       139	      3678	       503	     11.15	      7.72	    232.30	     66422	      1371.52	     13.16	
   4012.00	     59.73	      8623	     28.09	     12.50	     12.55	      38.0	      46.4	      0.79	       139	      3707	       502	     11.16	      7.73	    232.80	     66480	      1370.73	     13.16	
   4012.50	     60.38	      7655	     27.39	     12.50	     12.55	      38.1	      46.4	      0.86	       139	      3707	       502	     11.17	      7.74	    233.30	     66561	      1372.89	     13.16	
   4013.00	     38.50	      5470	     25.38	     12.50	     12.55	      38.0	      46.3	      0.87	       140	      3700	       502	     11.18	      7.76	    233.79	     66711	      1372.89	     13.16	
   4013.50	     43.53	      7975	     28.00	     12.50	     12.55	      38.0	      46.6	      0.81	       139	      3694	       502	     11.19	      7.76	    234.27	     66769	      1372.23	     13.16	
   4014.00	     77.23	     10157	     30.64	     12.50	     12.55	      38.0	      46.6	      0.74	       139	      3707	       502	     11.20	      7.77	    234.77	     66818	      1373.02	     13.16	
   4014.50	     72.62	      6530	     26.77	     12.50	     12.55	      38.1	      46.4	      0.84	       139	      3703	       502	     11.21	      7.78	    235.32	     66901	      1373.77	     13.16	
   4015.00	     40.72	      5814	     26.22	     12.50	     12.55	      38.1	      46.6	      0.89	       139	      3693	       502	     11.22	      7.80	    235.84	     67031	      1373.56	     13.16	
   4015.50	     35.95	      6599	     27.40	     12.50	     12.54	      38.1	      46.7	      0.88	       139	      3686	       502	     11.23	      7.81	    236.34	     67129	      1373.14	     13.16	
   4016.00	     60.81	      7386	     29.19	     12.50	     12.55	      38.1	      46.4	      0.80	       139	      3682	       502	     11.24	      7.81	    236.85	     67191	      1373.66	     13.15	
   4016.50	     64.10	      7155	     29.34	     12.50	     12.55	      38.1	      46.6	      0.82	       139	      3692	       503	     11.25	      7.82	    237.31	     67258	      1372.18	     13.15	
   4017.00	     63.79	      7239	     29.19	     12.50	     12.55	      38.0	      46.6	      0.79	       139	      3709	       502	     11.26	      7.83	    237.78	     67321	      1372.58	     13.16	
   4017.50	     67.28	      7523	     28.97	     12.50	     12.55	      38.0	      46.6	      0.79	       139	      3691	       502	     11.26	      7.84	    238.31	     67384	      1371.46	     13.16	
   4018.00	     51.45	      6517	     26.70	     12.50	     12.55	      38.1	      46.7	      0.87	       139	      3715	       502	     11.28	      7.85	    238.86	     67491	      1368.63	     13.16	
   4018.50	     49.34	      7758	     28.46	     12.50	     12.55	      38.0	      46.6	      0.82	       139	      3696	       502	     11.29	      7.86	    239.33	     67560	      1370.38	     13.15	
   4019.00	     58.36	      8174	     28.98	     12.50	     12.55	      38.1	      46.7	      0.81	       139	      3694	       503	     11.29	      7.87	    239.87	     67632	      1371.73	     13.16	
   4019.50	     56.37	      7977	     29.03	     12.50	     12.55	      38.1	      46.7	      0.81	       139	      3706	       503	     11.30	      7.88	    240.34	     67706	      1370.22	     13.16	
   4020.00	     51.45	      8726	     28.79	     12.50	     12.55	      38.0	      46.7	      0.83	       138	      3715	       503	     11.31	      7.89	    240.83	     67792	      1371.48	     13.16	
   4020.50	     43.69	      6599	     27.06	     12.50	     12.55	      38.0	      46.6	      0.86	       139	      3735	       503	     11.33	      7.90	    241.33	     67901	      1370.74	     13.16	
   4021.00	     41.59	      7851	     29.38	     12.50	     12.56	      38.1	      46.5	      0.87	       139	      3720	       503	     11.34	      7.91	    241.90	     67996	      1372.62	     13.16	
   4021.50	     45.40	      6534	     27.43	     12.50	     12.55	      38.0	      46.7	      0.86	       139	      3716	       503	     11.35	      7.92	    242.32	     68086	      1369.60	     13.16	
   4022.00	     35.57	      6603	     22.62	     12.50	     12.56	      38.1	      46.4	      0.92	       138	      3775	       503	     11.37	      7.94	    242.73	     68262	      1370.37	     13.16	
   4022.50	     54.44	      8855	     27.53	     12.50	     12.56	      38.1	      46.5	      0.84	       139	      3713	       503	     11.37	      7.95	    243.25	     68306	      1369.01	     13.16	
   4023.00	     68.64	      8692	     27.31	     12.50	     12.56	      38.1	      46.4	      0.77	       139	      3761	       503	     11.38	      7.96	    243.73	     68382	      1368.52	     13.16	
   4023.50	     49.04	      7923	     27.38	     12.50	     12.56	      38.1	      46.5	      0.83	       139	      3742	       503	     11.39	      7.97	    244.29	     68466	      1367.68	     13.16	
   4024.00	     44.93	      6093	     24.26	     12.50	     12.56	      38.2	      46.4	      0.83	       139	      3734	       503	     11.41	      7.98	    244.68	     68560	      1366.74	     13.16	
   4024.50	     44.43	      6395	     25.51	     12.50	     12.55	      38.1	      46.5	      0.84	       138	      3729	       504	     11.42	      7.99	    245.19	     68662	      1365.71	     13.16	
   4025.00	     39.32	      6767	     26.79	     12.50	     12.56	      38.2	      46.5	      0.87	       139	      3727	       503	     11.43	      8.00	    245.72	     68766	      1365.36	     13.16	
   4025.50	     27.56	      3925	     21.21	     12.50	     12.56	      38.2	      46.5	      0.94	       139	      3721	       503	     11.46	      8.03	    246.26	     68995	      1367.43	     13.16	
   4026.00	     36.70	      9031	     26.92	     12.50	     12.56	      38.3	      46.5	      0.90	       139	      3687	       503	     11.47	      8.04	    246.79	     69079	      1365.56	     13.16	
   4026.50	     59.13	      8658	     28.64	     12.50	     12.56	      38.3	      46.4	      0.81	       139	      3734	       503	     11.47	      8.05	    247.23	     69139	      1366.00	     13.16	
   4027.00	     69.17	     10760	     31.24	     12.50	     12.56	      38.1	      46.4	      0.78	       139	      3722	       503	     11.48	      8.06	    247.74	     69201	      1364.85	     13.16	
   4027.50	     50.07	      5260	     24.80	     12.50	     12.56	      38.3	      46.4	      0.86	       138	      3753	       504	     11.50	      8.07	    248.22	     69354	      1367.51	     13.16	
