~VERSION INFORMATION
VERS.    2.0:   CWLS LOG ASCII STANDARD - VERSION 2.0
WRAP.     NO:   ONE LINE PER STEP
~WELL INFORMATION BLOCK
#MNEM.UNIT      DATA                  DESCRIPTION OF MNEMONIC
#----   --------             ---------------
STRT.m  508.00                   :START DEPTH
STOP.m  5287.00                   :STOP DEPTH
STEP.m  0.50                   :STEP VALUE
NULL.  -999.25                   :NULL VALUE
COMP.   CONOCOPHILLIPS                   :COMPANY NAME
WELL.   Poseidon North-1                   :WELL NAME
FLD .   BROWSE                   :FIELD NAME
LOC .                      :LOCATION
PROV.                      :PROVINCE
SRVC.   Geoservices                   :SERVICE COMPANY NAME
DATE.   05-06-2014 01:42:56                   :DATE
UWI .                      :UNIQUE WELL IDENTIFIER
~PARAMETER INFORMATION
~CURVE INFORMATION
#MNEM.UNIT       API CODE        CURVE DESCRIPTION
#----   -------- ------------------
 .m        :
ROP Offline .m/h        :ROP Offline
Surface Torque .lbf.ft        :Surface Torque
Weight On Bit Driller .klbm        :Weight On Bit Driller
Mud Weight In .ppg        :Mud Weight In
Mud Weight Out .ppg        :Mud Weight Out
Temperature In .degC        :Temperature In
Temperature Out .degC        :Temperature Out
D-Exponent .Euc        :D-Exponent
Total RPM [Surface + DHM] .1/min        :Total RPM [Surface + DHM]
Stand Pipe Pressure .psi        :Stand Pipe Pressure
Pump flow .gpm        :Pump flow
TotalRotaryTime .h        :TotalRotaryTime
Bit Time .h        :Bit Time
Bit Run .m        :Bit Run
TotalCumRevOnBottom .Euc        :TotalCumRevOnBottom
Sum All Pits .bbl        :Sum All Pits
ECD .ppg        :ECD
#
#-----------------------------------------------------------
#  (m)   ROP Offline (m/h)   Surface Torque (lbf.ft)   Weight On Bit Driller (klbm)   Mud Weight In (ppg)   Mud Weight Out (ppg)   Temperature In (degC)   Temperature Out (degC)   D-Exponent (Euc)   Total RPM [Surface + DHM] (1/min)   Stand Pipe Pressure (psi)   Pump flow (gpm)   TotalRotaryTime (h)   Bit Time (h)   Bit Run (m)   TotalCumRevOnBottom (Euc)   Sum All Pits (bbl)   ECD (ppg)
#-----------------------------------------------------------
~A
# ...
   4308.00	      2.10	      4766	      4.78	     12.80	     12.90	      41.4	      46.3	      0.96	       150	      3706	       500	     24.91	     21.50	    529.28	    193899	      1344.82	     13.36	
   4308.50	      2.18	      4388	      4.22	     12.80	     12.90	      41.1	      46.3	      0.97	       150	      3709	       500	     25.16	     21.75	    529.80	    196161	      1344.65	     13.36	
   4309.00	      2.13	      4563	      7.84	     12.80	     12.88	      40.8	      45.6	      0.99	       150	      3713	       500	     25.39	     21.98	    530.29	    198219	      1339.93	     13.36	
   4309.50	      2.01	      4273	      7.59	     12.80	     12.84	      40.6	      48.4	      1.05	       150	      3708	       500	     25.67	     22.26	    530.75	    200723	      1341.16	     13.36	
   4310.00	      1.75	      4296	      7.55	     12.80	     12.86	      40.4	      48.3	      1.09	       150	      3711	       500	     25.91	     22.50	    531.29	    202934	      1337.21	     13.36	
   4310.50	      1.58	      4517	     10.64	     12.80	     12.88	      40.1	      46.5	      1.14	       150	      3716	       500	     26.25	     22.84	    531.76	    205951	      1321.93	     13.36	
   4311.00	      6.23	      5698	      1.34	     12.80	     12.89	      39.7	      46.1	      0.89	       148	      3794	       504	     26.38	     22.97	    532.28	    207141	      1359.99	     13.36	
   4311.50	      8.94	      5437	      0.19	     12.80	     12.87	      39.7	      47.2	      0.57	       148	      3774	       502	     26.45	     23.04	    532.79	    207746	      1360.49	     13.36	
   4312.00	      8.47	      5497	      0.27	     12.80	     12.87	      39.7	      48.1	      0.54	       148	      3743	       501	     26.50	     23.09	    533.26	    208232	      1348.18	     13.36	
   4312.50	      8.85	      5331	      0.19	     12.80	     12.86	      39.7	      48.2	      0.49	       148	      3747	       501	     26.57	     23.16	    533.79	    208839	      1342.73	     13.36	
   4313.00	      9.28	      6639	      7.13	     12.80	     12.83	      39.6	      47.4	      0.58	       148	      3763	       501	     26.61	     23.20	    534.26	    209194	      1342.13	     13.36	
   4313.50	     12.12	      5981	      7.44	     12.80	     12.82	      39.6	      46.7	      0.75	       148	      3754	       501	     26.65	     23.24	    534.76	    209566	      1343.59	     13.36	
   4314.00	     12.93	      6120	      8.17	     12.80	     12.84	      39.6	      46.7	      0.81	       148	      3753	       501	     26.69	     23.28	    535.25	    209874	      1342.79	     13.36	
   4314.50	     13.97	      6222	      6.99	     12.80	     12.85	      39.6	      47.1	      0.80	       148	      3747	       501	     26.72	     23.32	    535.78	    210190	      1341.39	     13.36	
   4315.00	     16.33	      7522	     11.30	     12.80	     12.86	      39.7	      47.4	      0.79	       148	      3759	       501	     26.75	     23.34	    536.27	    210428	      1342.09	     13.36	
   4315.50	     13.63	      6367	      8.37	     12.80	     12.87	      39.6	      47.6	      0.83	       148	      3747	       501	     26.79	     23.38	    536.76	    210771	      1339.83	     13.36	
   4316.00	     16.20	      7384	     10.89	     12.80	     12.88	      39.6	      47.2	      0.81	       148	      3773	       501	     26.83	     23.42	    537.24	    211110	      1339.45	     13.36	
   4316.50	     18.57	      6726	      9.19	     12.80	     12.79	      39.5	      45.8	      0.79	       148	      3753	       501	     26.86	     23.45	    537.76	    211428	      1341.90	     13.36	
   4317.00	     16.53	      6720	      9.12	     12.80	     12.85	      39.5	      47.1	      0.81	       147	      3778	       501	     26.89	     23.48	    538.27	    211672	      1338.20	     13.36	
   4317.50	     19.14	      7788	     13.86	     12.80	     12.76	      39.4	      47.4	      0.81	       148	      3759	       501	     26.91	     23.51	    538.76	    211876	      1340.09	     13.36	
   4318.00	     15.50	      6635	      9.25	     12.80	     12.84	      39.3	      47.9	      0.84	       148	      3764	       501	     26.96	     23.55	    539.27	    212309	      1341.00	     13.36	
   4318.50	     15.73	      7560	     14.12	     12.80	     12.84	      39.2	      48.1	      0.84	       148	      3775	       501	     26.98	     23.57	    539.76	    212489	      1339.43	     13.36	
   4319.00	     16.95	      6526	     11.42	     12.80	     12.84	      39.2	      48.3	      0.85	       147	      3754	       501	     27.02	     23.61	    540.31	    212814	      1338.84	     13.36	
   4319.50	     10.00	      6834	      8.13	     12.80	     12.85	      39.5	      48.4	      0.89	       148	      3773	       501	     27.10	     23.69	    540.81	    213519	      1337.85	     13.36	
   4320.00	      9.38	      5167	      8.19	     12.80	     12.85	      39.9	      48.4	      0.88	       148	      3760	       501	     27.14	     23.74	    541.26	    213920	      1339.60	     13.36	
   4320.50	     18.73	      7717	     13.70	     12.80	     12.85	      40.2	      48.4	      0.82	       148	      3777	       501	     27.16	     23.75	    541.75	    214073	      1339.30	     13.36	
   4321.00	     22.29	      7409	     12.81	     12.80	     12.85	      40.5	      48.5	      0.81	       148	      3753	       502	     27.19	     23.78	    542.27	    214297	      1341.27	     13.36	
   4321.50	     20.93	      7468	     14.18	     12.80	     12.85	      40.8	      48.5	      0.83	       148	      3765	       502	     27.21	     23.80	    542.74	    214504	      1338.35	     13.36	
   4322.00	     21.22	      7760	     15.40	     12.80	     12.85	      41.0	      48.5	      0.86	       148	      3749	       502	     27.23	     23.83	    543.23	    214713	      1340.05	     13.36	
   4322.50	     17.90	      7472	     14.39	     12.80	     12.85	      41.8	      48.6	      0.89	       148	      3761	       501	     27.27	     23.86	    543.76	    215035	      1340.85	     13.36	
   4323.00	     16.26	      7641	     14.09	     12.80	     12.85	      42.0	      48.7	      0.90	       148	      3771	       501	     27.29	     23.89	    544.25	    215259	      1342.15	     13.36	
   4323.50	     19.18	      7466	     14.73	     12.80	     12.85	      42.2	      48.8	      0.87	       148	      3795	       501	     27.32	     23.91	    544.73	    215461	      1338.64	     13.36	
   4324.00	     20.53	      7514	     17.05	     12.80	     12.85	      42.3	      48.9	      0.87	       148	      3806	       502	     27.34	     23.94	    545.27	    215690	      1340.41	     13.36	
   4324.50	     21.69	      7549	     16.70	     12.80	     12.85	      42.3	      49.0	      0.86	       148	      3792	       502	     27.37	     23.96	    545.74	    215894	      1348.67	     13.36	
   4325.00	     24.35	      6804	     12.87	     12.80	     12.85	      42.4	      49.0	      0.83	       148	      3804	       502	     27.39	     23.98	    546.22	    216107	      1354.91	     13.36	
   4325.50	     17.63	      5227	     10.68	     12.80	     12.85	      42.4	      48.8	      0.90	       148	      3784	       502	     27.44	     24.03	    546.79	    216530	      1354.41	     13.36	
   4326.00	     10.36	      5826	     10.48	     12.80	     12.85	      42.3	      48.9	      0.92	       147	      3767	       502	     27.48	     24.07	    547.31	    216910	      1355.38	     13.36	
   4326.50	     12.98	      6717	     12.58	     12.80	     12.86	      42.1	      49.0	      0.88	       147	      3755	       502	     27.52	     24.11	    547.76	    217255	      1359.35	     13.36	
   4327.00	     16.07	      6650	     13.97	     12.80	     12.85	      41.9	      49.1	      0.87	       148	      3801	       502	     27.55	     24.14	    548.30	    217499	      1360.17	     13.36	
   4327.50	     19.85	      7662	     12.19	     12.80	     12.85	      41.9	      49.2	      0.84	       148	      3744	       501	     27.57	     24.16	    548.78	    217706	      1357.63	     13.36	
