~VERSION INFORMATION
VERS.    2.0:   CWLS LOG ASCII STANDARD - VERSION 2.0
WRAP.     NO:   ONE LINE PER STEP
~WELL INFORMATION BLOCK
#MNEM.UNIT      DATA                  DESCRIPTION OF MNEMONIC
#----   --------             ---------------
STRT.m  508.00                   :START DEPTH
STOP.m  5287.00                   :STOP DEPTH
STEP.m  0.50                   :STEP VALUE
NULL.  -999.25                   :NULL VALUE
COMP.   CONOCOPHILLIPS                   :COMPANY NAME
WELL.   Poseidon North-1                   :WELL NAME
FLD .   BROWSE                   :FIELD NAME
LOC .                      :LOCATION
PROV.                      :PROVINCE
SRVC.   Geoservices                   :SERVICE COMPANY NAME
DATE.   05-06-2014 01:42:56                   :DATE
UWI .                      :UNIQUE WELL IDENTIFIER
~PARAMETER INFORMATION
~CURVE INFORMATION
#MNEM.UNIT       API CODE        CURVE DESCRIPTION
#----   -------- ------------------
 .m        :
ROP Offline .m/h        :ROP Offline
Surface Torque .lbf.ft        :Surface Torque
Weight On Bit Driller .klbm        :Weight On Bit Driller
Mud Weight In .ppg        :Mud Weight In
Mud Weight Out .ppg        :Mud Weight Out
Temperature In .degC        :Temperature In
Temperature Out .degC        :Temperature Out
D-Exponent .Euc        :D-Exponent
Total RPM [Surface + DHM] .1/min        :Total RPM [Surface + DHM]
Stand Pipe Pressure .psi        :Stand Pipe Pressure
Pump flow .gpm        :Pump flow
TotalRotaryTime .h        :TotalRotaryTime
Bit Time .h        :Bit Time
Bit Run .m        :Bit Run
TotalCumRevOnBottom .Euc        :TotalCumRevOnBottom
Sum All Pits .bbl        :Sum All Pits
ECD .ppg        :ECD
#
#-----------------------------------------------------------
#  (m)   ROP Offline (m/h)   Surface Torque (lbf.ft)   Weight On Bit Driller (klbm)   Mud Weight In (ppg)   Mud Weight Out (ppg)   Temperature In (degC)   Temperature Out (degC)   D-Exponent (Euc)   Total RPM [Surface + DHM] (1/min)   Stand Pipe Pressure (psi)   Pump flow (gpm)   TotalRotaryTime (h)   Bit Time (h)   Bit Run (m)   TotalCumRevOnBottom (Euc)   Sum All Pits (bbl)   ECD (ppg)
#-----------------------------------------------------------
~A
# ...
   4948.00	     11.73	      8369	     11.17	     12.80	     12.89	      44.8	      46.2	      0.94	       158	      3176	       445	     55.02	     51.61	   1169.06	    466870	      1209.70	     13.13	
   4948.50	     14.86	      6536	     11.26	     12.80	     12.88	      44.5	      46.5	      0.88	       160	      3230	       445	     55.07	     51.65	   1169.58	    467277	      1223.26	     13.13	
   4949.00	     13.71	     10518	     17.17	     12.80	     12.87	      44.5	      46.6	      0.93	       159	      3210	       444	     55.09	     51.67	   1170.11	    467489	      1227.30	     13.13	
   4949.50	     12.48	      7456	     18.78	     12.80	     12.89	      44.3	      46.4	      1.02	       160	      3227	       445	     55.13	     51.72	   1170.56	    467921	      1221.75	     13.13	
   4950.00	      7.89	     10486	     18.55	     12.80	     12.89	      43.9	      46.5	      1.11	       160	      3223	       445	     55.21	     51.80	   1171.08	    468678	      1226.20	     13.12	
   4950.50	      7.25	      7788	     14.39	     12.80	     12.89	      43.8	      46.5	      1.08	       159	      3220	       445	     55.27	     51.85	   1171.59	    469199	      1223.75	     13.12	
   4951.00	      9.63	     10757	     14.28	     12.80	     12.88	      42.8	      46.7	      0.98	       160	      3229	       444	     55.32	     51.90	   1172.06	    469659	      1223.73	     13.13	
   4951.50	     14.47	      9361	     11.74	     12.80	     12.88	      41.7	      47.4	      0.88	       159	      3245	       445	     55.36	     51.94	   1172.55	    470069	      1221.31	     13.12	
   4952.00	     24.25	      9953	     15.01	     12.80	     12.88	      41.2	      47.5	      0.83	       160	      3267	       445	     55.37	     51.96	   1173.08	    470215	      1221.16	     13.12	
   4952.50	     25.22	     10572	     16.98	     12.80	     12.87	      40.8	      47.6	      0.86	       160	      3275	       445	     55.39	     51.97	   1173.56	    470385	      1223.32	     13.12	
   4953.00	     18.67	     10211	     16.14	     12.80	     12.87	      40.0	      47.4	      0.89	       160	      3242	       445	     55.42	     52.00	   1174.08	    470662	      1223.16	     13.12	
   4953.50	     18.87	      9061	     14.54	     12.80	     12.89	      39.7	      47.0	      0.89	       159	      3245	       445	     55.45	     52.03	   1174.56	    470898	      1222.04	     13.12	
   4954.00	     22.05	     10233	     16.94	     12.80	     12.89	      39.3	      46.9	      0.88	       160	      3229	       445	     55.47	     52.06	   1175.05	    471170	      1221.66	     13.12	
   4954.50	     21.90	      9956	     16.04	     12.80	     12.88	      39.4	      47.0	      0.89	       159	      3253	       445	     55.50	     52.08	   1175.59	    471375	      1224.09	     13.12	
   4955.00	     21.37	     10508	     16.48	     12.80	     12.87	      39.3	      47.1	      0.87	       160	      3297	       445	     55.52	     52.10	   1176.02	    471577	      1225.26	     13.12	
   4955.50	     23.75	      9941	     16.06	     12.80	     12.88	      39.6	      47.1	      0.87	       160	      3226	       445	     55.54	     52.12	   1176.55	    471806	      1223.34	     13.12	
   4956.00	     21.69	      9716	     16.24	     12.80	     12.89	      39.8	      47.0	      0.87	       159	      3258	       445	     55.56	     52.15	   1177.11	    472023	      1227.65	     13.12	
   4956.50	     22.23	      8969	     15.58	     12.80	     12.88	      40.0	      47.0	      0.83	       159	      3296	       445	     55.58	     52.17	   1177.52	    472212	      1219.89	     13.12	
   4957.00	     29.82	     10196	     16.69	     12.80	     12.89	      39.9	      46.9	      0.83	       159	      3277	       445	     55.60	     52.18	   1178.04	    472356	      1222.84	     13.12	
   4957.50	     29.56	     10350	     16.81	     12.80	     12.89	      40.2	      46.9	      0.84	       159	      3283	       445	     55.62	     52.20	   1178.56	    472555	      1226.49	     13.12	
   4958.00	     29.43	     10857	     17.88	     12.80	     12.88	      40.2	      47.0	      0.84	       160	      3275	       445	     55.63	     52.22	   1179.08	    472704	      1226.00	     13.12	
   4958.50	     28.40	     11471	     18.43	     12.80	     12.90	      40.3	      46.8	      0.95	       160	      3289	       445	     55.65	     52.23	   1179.57	    472874	      1225.00	     13.12	
   4959.00	     14.25	      7808	     18.14	     12.80	     12.90	      40.6	      46.8	      1.06	       159	      3240	       445	     55.71	     52.29	   1180.08	    473433	      1217.76	     13.12	
   4959.50	      9.28	     11072	     15.34	     12.80	     12.90	      41.0	      47.0	      1.01	       160	      3184	       444	     55.76	     52.34	   1180.56	    473918	      1224.01	     13.12	
   4960.00	     13.71	      9992	     18.81	     12.80	     12.90	      41.1	      46.9	      0.97	       158	      3197	       444	     55.79	     52.38	   1181.10	    474234	      1224.82	     13.11	
   4960.50	     14.49	      8606	     18.05	     12.80	     12.90	      41.3	      46.8	      1.00	       160	      3265	       445	     55.83	     52.41	   1181.57	    474580	      1222.77	     13.12	
   4961.00	     13.40	     10663	     17.86	     12.80	     12.90	      41.4	      46.6	      1.00	       159	      3222	       445	     55.87	     52.45	   1182.04	    474973	      1226.84	     13.12	
   4961.50	     13.38	     11335	     18.06	     12.80	     12.90	      41.5	      46.7	      0.93	       160	      3275	       445	     55.90	     52.49	   1182.56	    475290	      1221.19	     13.12	
   4962.00	     19.61	     10013	     15.60	     12.80	     12.90	      41.5	      46.8	      0.87	       160	      3279	       445	     55.93	     52.51	   1183.06	    475510	      1219.69	     13.12	
   4962.50	     23.01	      7708	     18.02	     12.80	     12.91	      41.5	      46.8	      0.87	       159	      3297	       445	     55.95	     52.53	   1183.56	    475688	      1222.50	     13.12	
   4963.00	     21.42	     11024	     18.49	     12.80	     12.90	      41.5	      47.0	      0.93	       159	      3263	       445	     55.97	     52.56	   1184.06	    475948	      1222.65	     13.12	
   4963.50	     19.91	     12984	     19.23	     12.80	     12.90	      41.5	      47.3	      0.93	       160	      3259	       444	     56.00	     52.58	   1184.59	    476183	      1224.77	     13.12	
   4964.00	     19.89	     11908	     20.80	     12.80	     12.90	      41.5	      47.5	      0.93	       159	      3274	       445	     56.02	     52.60	   1185.04	    476406	      1224.33	     13.12	
   4964.50	     20.12	     10690	     18.88	     12.80	     12.90	      41.5	      47.2	      0.89	       159	      3293	       445	     56.05	     52.63	   1185.54	    476653	      1219.75	     13.12	
   4965.00	     28.83	     11022	     19.88	     12.80	     12.88	      41.5	      47.2	      0.84	       159	      3275	       445	     56.06	     52.64	   1186.06	    476788	      1217.03	     13.12	
   4965.50	     30.93	     11213	     20.48	     12.80	     12.89	      41.5	      47.2	      0.89	       160	      3307	       445	     56.08	     52.66	   1186.54	    476961	      1218.02	     13.12	
   4966.00	     27.23	     10926	     20.02	     12.80	     12.89	      41.5	      47.3	      0.88	       160	      3293	       445	     56.10	     52.68	   1187.08	    477158	      1220.93	     13.12	
   4966.50	     28.56	      9774	     21.16	     12.80	     12.89	      41.5	      47.5	      0.93	       160	      3282	       445	     56.12	     52.70	   1187.59	    477309	      1221.09	     13.12	
   4967.00	     22.30	     11804	     20.50	     12.80	     12.88	      41.5	      47.5	      0.99	       159	      3292	       445	     56.14	     52.73	   1188.04	    477572	      1219.32	     13.12	
   4967.50	     20.68	     11144	     20.23	     12.80	     12.88	      41.5	      47.5	      0.91	       159	      3273	       445	     56.16	     52.75	   1188.54	    477766	      1209.35	     13.12	
