~VERSION INFORMATION
VERS.    2.0:   CWLS LOG ASCII STANDARD - VERSION 2.0
WRAP.     NO:   ONE LINE PER STEP
~WELL INFORMATION BLOCK
#MNEM.UNIT      DATA                  DESCRIPTION OF MNEMONIC
#----   --------             ---------------
STRT.m  508.00                   :START DEPTH
STOP.m  5287.00                   :STOP DEPTH
STEP.m  0.50                   :STEP VALUE
NULL.  -999.25                   :NULL VALUE
COMP.   CONOCOPHILLIPS                   :COMPANY NAME
WELL.   Poseidon North-1                   :WELL NAME
FLD .   BROWSE                   :FIELD NAME
LOC .                      :LOCATION
PROV.                      :PROVINCE
SRVC.   Geoservices                   :SERVICE COMPANY NAME
DATE.   05-06-2014 01:42:56                   :DATE
UWI .                      :UNIQUE WELL IDENTIFIER
~PARAMETER INFORMATION
~CURVE INFORMATION
#MNEM.UNIT       API CODE        CURVE DESCRIPTION
#----   -------- ------------------
 .m        :
ROP Offline .m/h        :ROP Offline
Surface Torque .lbf.ft        :Surface Torque
Weight On Bit Driller .klbm        :Weight On Bit Driller
Mud Weight In .ppg        :Mud Weight In
Mud Weight Out .ppg        :Mud Weight Out
Temperature In .degC        :Temperature In
Temperature Out .degC        :Temperature Out
D-Exponent .Euc        :D-Exponent
Total RPM [Surface + DHM] .1/min        :Total RPM [Surface + DHM]
Stand Pipe Pressure .psi        :Stand Pipe Pressure
Pump flow .gpm        :Pump flow
TotalRotaryTime .h        :TotalRotaryTime
Bit Time .h        :Bit Time
Bit Run .m        :Bit Run
TotalCumRevOnBottom .Euc        :TotalCumRevOnBottom
Sum All Pits .bbl        :Sum All Pits
ECD .ppg        :ECD
#
#-----------------------------------------------------------
#  (m)   ROP Offline (m/h)   Surface Torque (lbf.ft)   Weight On Bit Driller (klbm)   Mud Weight In (ppg)   Mud Weight Out (ppg)   Temperature In (degC)   Temperature Out (degC)   D-Exponent (Euc)   Total RPM [Surface + DHM] (1/min)   Stand Pipe Pressure (psi)   Pump flow (gpm)   TotalRotaryTime (h)   Bit Time (h)   Bit Run (m)   TotalCumRevOnBottom (Euc)   Sum All Pits (bbl)   ECD (ppg)
#-----------------------------------------------------------
~A
# ...
   4628.00	     23.47	      8912	     19.62	     12.80	     12.84	      43.6	      47.0	      0.86	       148	      4009	       508	     41.00	     37.56	    849.10	    338714	      1280.93	     13.37	
   4628.50	     29.48	      6146	     16.96	     12.80	     12.85	      43.6	      46.9	      0.83	       149	      4015	       508	     41.02	     37.58	    849.51	    338892	      1273.94	     13.37	
   4629.00	     43.60	      9520	     20.71	     12.80	     12.84	      43.5	      47.0	      0.79	       149	      3982	       508	     41.03	     37.59	    850.02	    338976	      1271.99	     13.37	
   4629.50	     43.73	      7637	     19.58	     12.80	     12.85	      43.5	      46.9	      0.80	       148	      4001	       508	     41.05	     37.61	    850.57	    339142	      1265.64	     13.37	
   4630.00	     33.73	     10592	     23.30	     12.80	     12.85	      43.4	      46.9	      0.84	       148	      3995	       508	     41.06	     37.62	    851.14	    339223	      1264.96	     13.37	
   4630.50	     39.12	      7983	     19.70	     12.80	     12.85	      43.4	      46.9	      0.81	       151	      3860	       500	     41.07	     37.63	    851.51	    339353	      1263.90	     13.36	
   4631.00	     34.49	      8347	     17.76	     12.80	     12.84	      43.3	      46.9	      0.83	       150	      3869	       500	     41.09	     37.65	    852.07	    339526	      1262.65	     13.36	
   4631.50	     38.57	      6911	     18.70	     12.80	     12.85	      43.6	      46.8	      0.82	       151	      3905	       500	     41.11	     37.67	    852.49	    339637	      1261.32	     13.36	
   4632.00	     48.18	     10011	     20.77	     12.80	     12.85	      43.4	      46.8	      0.79	       151	      3896	       500	     41.11	     37.67	    853.01	    339704	      1262.08	     13.36	
   4632.50	     40.78	      9047	     22.70	     12.80	     12.85	      43.1	      46.7	      0.84	       151	      3893	       500	     41.13	     37.69	    853.56	    339837	      1261.03	     13.36	
   4633.00	     26.46	      8799	     25.57	     12.80	     12.85	      43.1	      46.7	      0.94	       150	      3874	       500	     41.15	     37.71	    854.13	    340018	      1260.37	     13.36	
   4633.50	     19.52	      8615	     24.48	     12.80	     12.84	      43.1	      46.7	      1.01	       151	      3869	       500	     41.17	     37.73	    854.56	    340252	      1260.96	     13.36	
   4634.00	     19.15	      8117	     22.32	     12.80	     12.84	      43.1	      47.5	      0.99	       151	      3886	       500	     41.20	     37.76	    855.09	    340531	      1260.46	     13.36	
   4634.50	     23.88	     10365	     22.63	     12.80	     12.84	      42.9	      47.9	      0.91	       151	      3884	       500	     41.22	     37.78	    855.60	    340679	      1259.51	     13.36	
   4635.00	     32.63	      8774	     20.94	     12.80	     12.84	      42.9	      48.2	      0.86	       151	      3874	       500	     41.24	     37.80	    856.02	    340820	      1259.22	     13.36	
   4635.50	     34.10	      8161	     21.18	     12.80	     12.45	      43.0	      46.0	      0.84	       151	      3888	       500	     41.25	     37.81	    856.49	    340938	      1257.19	     13.36	
   4636.00	     37.14	      7999	     22.19	     12.80	     12.81	      42.7	      47.5	      0.84	       151	      3896	       500	     41.26	     37.82	    857.00	    341054	      1258.15	     13.36	
   4636.50	     36.81	      7984	     20.81	     12.80	     12.73	      42.7	      47.3	      0.83	       151	      3881	       500	     41.28	     37.84	    857.53	    341180	      1258.68	     13.36	
   4637.00	     40.24	      8233	     21.03	     12.80	     12.81	      42.7	      47.1	      0.82	       151	      3895	       500	     41.29	     37.85	    858.06	    341291	      1258.83	     13.36	
   4637.50	     39.30	      9138	     22.04	     12.80	     12.85	      42.8	      47.1	      0.82	       151	      3873	       500	     41.30	     37.86	    858.54	    341402	      1258.75	     13.36	
   4638.00	     38.61	      9124	     21.11	     12.80	     12.84	      42.7	      47.3	      0.82	       151	      3881	       500	     41.31	     37.87	    859.06	    341533	      1258.09	     13.36	
   4638.50	     38.49	      8905	     21.45	     12.80	     12.84	      42.7	      47.4	      0.82	       151	      3867	       501	     41.33	     37.89	    859.52	    341633	      1258.27	     13.36	
   4639.00	     41.79	      8019	     20.42	     12.80	     12.84	      42.8	      47.4	      0.81	       151	      3883	       500	     41.34	     37.90	    860.01	    341752	      1259.20	     13.36	
   4639.50	     41.46	     10799	     21.49	     12.80	     12.84	      42.8	      47.5	      0.82	       152	      3878	       500	     41.35	     37.91	    860.56	    341858	      1258.72	     13.36	
   4640.00	     40.90	      7891	     21.59	     12.80	     12.83	      42.7	      47.7	      0.82	       151	      3879	       501	     41.36	     37.92	    861.02	    341971	      1258.49	     13.36	
   4640.50	     42.46	      9910	     21.69	     12.80	     12.84	      42.8	      47.6	      0.80	       152	      3902	       500	     41.37	     37.93	    861.54	    342080	      1258.31	     13.36	
   4641.00	     47.28	      9637	     21.32	     12.80	     12.84	      42.8	      47.5	      0.80	       151	      3908	       499	     41.39	     37.95	    862.04	    342178	      1257.18	     13.36	
   4641.50	     45.96	      8621	     21.40	     12.80	     12.83	      42.6	      47.5	      0.82	       152	      3910	       499	     41.40	     37.96	    862.55	    342279	      1256.42	     13.36	
   4642.00	     38.12	      8425	     20.71	     12.80	     12.84	      42.7	      47.4	      0.83	       152	      3890	       500	     41.41	     37.97	    863.15	    342425	      1257.33	     13.36	
   4642.50	     35.93	      7820	     19.90	     12.80	     12.84	      42.8	      47.2	      0.83	       151	      3913	       500	     41.42	     37.98	    863.53	    342533	      1256.91	     13.36	
   4643.00	     42.04	      9190	     20.69	     12.80	     12.84	      42.7	      47.3	      0.82	       152	      3901	       500	     41.44	     38.00	    864.04	    342631	      1256.53	     13.36	
   4643.50	     43.31	      9368	     22.96	     12.80	     12.84	      42.8	      47.2	      0.83	       151	      3910	       500	     41.45	     38.01	    864.53	    342727	      1255.91	     13.36	
   4644.00	     40.47	      7580	     23.86	     12.80	     12.85	      42.7	      47.3	      0.85	       150	      3864	       500	     41.46	     38.02	    865.02	    342848	      1256.88	     13.36	
   4644.50	     37.36	     11561	     23.46	     12.80	     12.84	      42.7	      47.5	      0.87	       151	      3914	       500	     41.47	     38.03	    865.57	    342974	      1257.06	     13.36	
   4645.00	     31.63	     10643	     25.15	     12.80	     12.84	      42.6	      47.7	      0.93	       150	      3874	       500	     41.49	     38.05	    866.10	    343128	      1256.25	     13.36	
   4645.50	     25.85	      7801	     22.09	     12.80	     12.84	      42.7	      48.1	      0.90	       151	      3887	       500	     41.51	     38.07	    866.56	    343350	      1254.06	     13.36	
   4646.00	     35.41	      9166	     21.49	     12.80	     12.83	      42.6	      48.4	      0.82	       151	      3930	       499	     41.53	     38.09	    867.04	    343446	      1255.16	     13.36	
   4646.50	     38.85	      7766	     20.30	     12.80	     12.83	      42.7	      48.6	      0.83	       151	      3894	       500	     41.54	     38.10	    867.59	    343587	      1253.80	     13.36	
   4647.00	     35.48	      8881	     20.19	     12.80	     12.82	      42.6	      48.9	      0.83	       152	      3878	       499	     41.55	     38.11	    868.03	    343705	      1254.13	     13.36	
   4647.50	     37.36	     10052	     21.90	     12.80	     12.82	      42.6	      48.9	      0.81	       151	      3900	       500	     41.57	     38.13	    868.60	    343816	      1254.06	     13.36	
