~VERSION INFORMATION
VERS.    2.0:   CWLS LOG ASCII STANDARD - VERSION 2.0
WRAP.     NO:   ONE LINE PER STEP
~WELL INFORMATION BLOCK
#MNEM.UNIT      DATA                  DESCRIPTION OF MNEMONIC
#----   --------             ---------------
STRT.m  508.00                   :START DEPTH
STOP.m  5287.00                   :STOP DEPTH
STEP.m  0.50                   :STEP VALUE
NULL.  -999.25                   :NULL VALUE
COMP.   CONOCOPHILLIPS                   :COMPANY NAME
WELL.   Poseidon North-1                   :WELL NAME
FLD .   BROWSE                   :FIELD NAME
LOC .                      :LOCATION
PROV.                      :PROVINCE
SRVC.   Geoservices                   :SERVICE COMPANY NAME
DATE.   05-06-2014 01:42:56                   :DATE
UWI .                      :UNIQUE WELL IDENTIFIER
~PARAMETER INFORMATION
~CURVE INFORMATION
#MNEM.UNIT       API CODE        CURVE DESCRIPTION
#----   -------- ------------------
 .m        :
ROP Offline .m/h        :ROP Offline
Surface Torque .lbf.ft        :Surface Torque
Weight On Bit Driller .klbm        :Weight On Bit Driller
Mud Weight In .ppg        :Mud Weight In
Mud Weight Out .ppg        :Mud Weight Out
Temperature In .degC        :Temperature In
Temperature Out .degC        :Temperature Out
D-Exponent .Euc        :D-Exponent
Total RPM [Surface + DHM] .1/min        :Total RPM [Surface + DHM]
Stand Pipe Pressure .psi        :Stand Pipe Pressure
Pump flow .gpm        :Pump flow
TotalRotaryTime .h        :TotalRotaryTime
Bit Time .h        :Bit Time
Bit Run .m        :Bit Run
TotalCumRevOnBottom .Euc        :TotalCumRevOnBottom
Sum All Pits .bbl        :Sum All Pits
ECD .ppg        :ECD
#
#-----------------------------------------------------------
#  (m)   ROP Offline (m/h)   Surface Torque (lbf.ft)   Weight On Bit Driller (klbm)   Mud Weight In (ppg)   Mud Weight Out (ppg)   Temperature In (degC)   Temperature Out (degC)   D-Exponent (Euc)   Total RPM [Surface + DHM] (1/min)   Stand Pipe Pressure (psi)   Pump flow (gpm)   TotalRotaryTime (h)   Bit Time (h)   Bit Run (m)   TotalCumRevOnBottom (Euc)   Sum All Pits (bbl)   ECD (ppg)
#-----------------------------------------------------------
~A
    508.00	   -999.25	   -999.25	   -999.25	   -999.25	   -999.25	   -999.25	   -999.25	   -999.25	   -999.25	   -999.25	   -999.25	   -999.25	   -999.25	   -999.25	   -999.25	      -999.25	   -999.25	
    508.50	   -999.25	   -999.25	   -999.25	   -999.25	   -999.25	   -999.25	   -999.25	   -999.25	   -999.25	   -999.25	   -999.25	   -999.25	   -999.25	   -999.25	   -999.25	      -999.25	   -999.25	
    509.00	   -999.25	   -999.25	   -999.25	   -999.25	   -999.25	   -999.25	   -999.25	   -999.25	   -999.25	   -999.25	   -999.25	   -999.25	   -999.25	   -999.25	   -999.25	      -999.25	   -999.25	
    509.50	   -999.25	   -999.25	   -999.25	   -999.25	   -999.25	   -999.25	   -999.25	   -999.25	   -999.25	   -999.25	   -999.25	   -999.25	   -999.25	   -999.25	   -999.25	      -999.25	   -999.25	
    510.00	     76.37	         0	      0.00	      8.60	      0.25	      31.3	      35.0	   -999.25	        44	       392	       407	      2.39	      0.01	      0.57	        43	      2324.23	      8.60	
    510.50	     55.84	         0	      0.00	      8.60	      0.25	      31.3	      35.2	   -999.25	        44	       440	       407	      2.39	      0.02	      1.06	        72	      2328.63	      8.60	
    511.00	     43.44	         0	      0.00	      8.60	      0.25	      31.3	      35.1	   -999.25	        43	       465	       407	      2.39	      0.03	      1.56	       102	      2313.68	      8.60	
    511.50	     40.64	         0	      0.00	      8.60	      0.25	      31.3	      34.9	   -999.25	        43	       511	       402	      2.39	      0.04	      2.06	       133	      2311.44	      8.60	
    512.00	     32.96	         0	      0.00	      8.60	      0.25	      31.3	      35.2	   -999.25	        43	       528	       406	      2.39	      0.06	      2.54	       177	      2297.96	      8.60	
    512.50	     38.86	         0	      0.00	      8.60	      0.25	      31.2	      35.2	   -999.25	        42	       565	       401	      2.39	      0.07	      3.02	       206	      2294.63	      8.60	
    513.00	     37.36	         0	      0.00	      8.60	      0.25	      31.2	      35.1	   -999.25	        43	       528	       401	      2.39	      0.08	      3.59	       242	      2285.22	      8.60	
    513.50	     30.05	         0	      0.00	      8.60	      0.25	      31.2	      35.3	   -999.25	        43	       532	       400	      2.39	      0.10	      4.07	       291	      2272.09	      8.60	
    514.00	     24.79	       125	      0.00	      8.60	      0.25	      31.3	      35.3	   -999.25	        70	       897	       600	      2.51	      0.13	      4.55	       378	      2263.72	      8.60	
    514.50	     27.05	        45	      0.00	      8.60	      0.25	      31.3	      34.9	   -999.25	        75	       809	       602	      2.53	      0.15	      5.07	       460	      2239.98	      8.60	
    515.00	     25.39	       373	      0.00	      8.60	      0.25	      31.3	      35.1	   -999.25	        75	       821	       601	      2.54	      0.16	      5.57	       537	      2227.83	      8.60	
    515.50	     24.12	       289	      0.00	      8.60	      0.25	      31.3	      35.0	      0.50	        74	       801	       602	      2.57	      0.19	      6.03	       635	      2203.81	      8.60	
    516.00	     22.61	       154	      1.59	      8.60	      0.25	      31.3	      35.4	      0.51	        75	       787	       602	      2.59	      0.21	      6.58	       747	      2196.39	      8.60	
    516.50	     22.59	       374	      0.52	      8.60	      0.25	      31.3	      34.9	      0.50	        74	       790	       603	      2.61	      0.23	      7.04	       825	      2187.18	      8.60	
    517.00	     37.76	       191	      1.30	      8.60	      0.25	      31.3	      35.2	      0.47	        74	       775	       604	      2.62	      0.24	      7.55	       881	      2175.32	      8.60	
    517.50	     38.60	       187	      0.98	      8.60	      0.25	      31.2	      35.0	      0.45	        75	       782	       601	      2.63	      0.25	      8.07	       937	      2161.61	      8.60	
    518.00	     39.17	       243	      1.46	      8.60	      0.25	      31.3	      35.2	      0.49	        74	       777	       603	      2.65	      0.26	      8.57	       985	      2157.65	      8.60	
    518.50	     31.80	       351	      0.84	      8.60	      0.25	      31.2	      35.1	      0.54	        83	       876	       647	      2.67	      0.29	      9.05	      1090	      2138.33	      8.60	
    519.00	     29.65	      1197	      1.05	      8.60	      0.25	      31.3	      34.8	      0.54	       101	      1308	       798	      2.68	      0.30	      9.53	      1175	      2119.38	      8.60	
    519.50	     34.18	       397	      2.16	      8.60	      0.25	      31.3	      35.0	      0.54	       102	      1237	       799	      2.70	      0.32	     10.04	      1258	      2122.71	      8.60	
    520.00	     30.19	       144	      1.68	      8.60	      0.25	      31.3	      35.2	      0.55	       101	      1176	       796	      2.72	      0.33	     10.56	      1374	      2128.63	      8.60	
    520.50	     26.73	       412	      0.89	      8.60	      0.25	      31.2	      35.1	      0.55	       100	      1193	       796	      2.74	      0.35	     11.06	      1494	      2118.95	      8.60	
    521.00	     30.77	       719	      1.89	      8.60	      0.25	      31.2	      34.8	      0.53	       107	      1393	       855	      2.75	      0.37	     11.59	      1594	      2116.01	      8.60	
    521.50	     32.01	      1265	      0.66	      8.60	      0.25	      31.3	      35.1	      0.49	       110	      1459	       877	      2.77	      0.38	     12.08	      1681	      2127.45	      8.60	
    522.00	     43.21	       663	      0.30	      8.60	      0.25	      31.3	      35.0	      0.46	       109	      1445	       879	      2.78	      0.39	     12.54	      1748	      2126.59	      8.60	
    522.50	     47.70	       701	      0.55	      8.60	      0.25	      31.2	      35.1	      0.45	       109	      1459	       878	      2.79	      0.40	     13.04	      1814	      2120.76	      8.60	
    523.00	     51.29	       577	      1.05	      8.60	      0.25	      31.3	      34.9	      0.49	       110	      1434	       880	      2.80	      0.41	     13.58	      1880	      2126.04	      8.60	
    523.50	     47.16	       484	      0.84	      8.60	      0.25	      31.3	      35.2	      0.54	       113	      1523	       914	      2.81	      0.43	     14.08	      1981	      2126.54	      8.60	
    524.00	     27.92	       532	      1.13	      8.60	      0.25	      31.2	      34.9	      0.58	       113	      1536	       914	      2.83	      0.45	     14.55	      2130	      2089.84	      8.60	
    524.50	     28.79	       629	      0.40	      8.60	      0.25	      31.2	      35.0	      0.48	       113	      1475	       914	      2.85	      0.46	     15.05	      2216	      2075.79	      8.60	
    525.00	     40.36	       306	      0.47	      8.60	      0.25	      31.3	      35.1	      0.47	       113	      1451	       908	      2.86	      0.48	     15.56	      2301	      2073.34	      8.60	
    525.50	     33.86	       335	      0.50	      8.60	      0.25	      31.2	      35.0	      0.54	       113	      1507	       912	      2.88	      0.50	     16.06	      2433	      2082.18	      8.60	
    526.00	     26.57	       466	      0.29	      8.60	      0.25	      31.2	      35.0	      0.52	       114	      1499	       911	      2.89	      0.51	     16.53	      2550	      2078.49	      8.60	
    526.50	     35.75	       787	      0.80	      8.60	      0.25	      31.2	      35.1	      0.49	       112	      1491	       912	      2.91	      0.52	     17.03	      2629	      2077.98	      8.60	
    527.00	     40.05	       847	      0.33	      8.60	      0.25	      31.2	      35.0	      0.44	       112	      1497	       913	      2.92	      0.54	     17.58	      2727	      2071.49	      8.60	
    527.50	     33.41	      1023	      1.07	      8.60	      0.25	      31.3	      35.0	      0.47	       130	      2036	      1076	      2.94	      0.56	     18.06	      2844	      2069.44	      8.60	
