~VERSION INFORMATION
VERS.    2.0:   CWLS LOG ASCII STANDARD - VERSION 2.0
WRAP.     NO:   ONE LINE PER STEP
~WELL INFORMATION BLOCK
#MNEM.UNIT      DATA                  DESCRIPTION OF MNEMONIC
#----   --------             ---------------
STRT.m  508.00                   :START DEPTH
STOP.m  5287.00                   :STOP DEPTH
STEP.m  0.50                   :STEP VALUE
NULL.  -999.25                   :NULL VALUE
COMP.   CONOCOPHILLIPS                   :COMPANY NAME
WELL.   Poseidon North-1                   :WELL NAME
FLD .   BROWSE                   :FIELD NAME
LOC .                      :LOCATION
PROV.                      :PROVINCE
SRVC.   Geoservices                   :SERVICE COMPANY NAME
DATE.   05-06-2014 01:42:56                   :DATE
UWI .                      :UNIQUE WELL IDENTIFIER
~PARAMETER INFORMATION
~CURVE INFORMATION
#MNEM.UNIT       API CODE        CURVE DESCRIPTION
#----   -------- ------------------
 .m        :
ROP Offline .m/h        :ROP Offline
Surface Torque .lbf.ft        :Surface Torque
Weight On Bit Driller .klbm        :Weight On Bit Driller
Mud Weight In .ppg        :Mud Weight In
Mud Weight Out .ppg        :Mud Weight Out
Temperature In .degC        :Temperature In
Temperature Out .degC        :Temperature Out
D-Exponent .Euc        :D-Exponent
Total RPM [Surface + DHM] .1/min        :Total RPM [Surface + DHM]
Stand Pipe Pressure .psi        :Stand Pipe Pressure
Pump flow .gpm        :Pump flow
TotalRotaryTime .h        :TotalRotaryTime
Bit Time .h        :Bit Time
Bit Run .m        :Bit Run
TotalCumRevOnBottom .Euc        :TotalCumRevOnBottom
Sum All Pits .bbl        :Sum All Pits
ECD .ppg        :ECD
#
#-----------------------------------------------------------
#  (m)   ROP Offline (m/h)   Surface Torque (lbf.ft)   Weight On Bit Driller (klbm)   Mud Weight In (ppg)   Mud Weight Out (ppg)   Temperature In (degC)   Temperature Out (degC)   D-Exponent (Euc)   Total RPM [Surface + DHM] (1/min)   Stand Pipe Pressure (psi)   Pump flow (gpm)   TotalRotaryTime (h)   Bit Time (h)   Bit Run (m)   TotalCumRevOnBottom (Euc)   Sum All Pits (bbl)   ECD (ppg)
#-----------------------------------------------------------
~A
# ...
   3368.00	      9.72	      7926	     22.51	      8.60	      8.91	      25.6	      30.0	      1.49	       144	      3202	       913	     46.16	     29.65	    267.39	    256068	      2008.61	      8.64	
   3368.50	     10.44	      8683	     21.47	      8.60	      8.87	      25.7	      29.7	      1.44	       144	      3226	       912	     46.21	     29.70	    267.87	    256540	      2017.40	      8.64	
   3369.00	     11.66	      7891	     22.48	      8.60	      8.87	      25.7	      29.5	      1.42	       146	      3266	       914	     46.25	     29.74	    268.34	    256864	      1994.12	      8.64	
   3369.50	     12.78	      6881	     20.48	      8.60	      8.87	      25.7	      29.6	      1.37	       145	      3451	       916	     46.29	     29.78	    268.85	    257223	      1982.22	      8.64	
   3370.00	     11.89	      5423	     21.64	      8.60	      8.89	      25.7	      29.4	      1.43	       144	      3239	       913	     46.35	     29.85	    269.37	    257757	      1993.45	      8.64	
   3370.50	      9.74	      7992	     20.85	      8.60	      8.94	      25.7	      31.3	      1.51	       146	      3207	       912	     46.41	     29.91	    269.84	    258280	      1949.43	      8.64	
   3371.00	      8.09	      6580	     21.26	      8.60	      8.98	      25.7	      31.4	      1.50	       145	      3155	       913	     46.48	     29.98	    270.38	    258894	      1886.97	      8.64	
   3371.50	      7.81	      9119	     20.31	      8.60	      8.94	      25.7	      30.9	      1.48	       145	      3246	       914	     46.52	     30.01	    270.85	    259217	      1822.97	      8.64	
   3372.00	      9.84	      9693	     21.25	      8.60	      8.94	      25.8	      30.6	      1.48	       144	      3263	       913	     46.58	     30.07	    271.37	    259695	      1803.74	      8.64	
   3372.50	      8.84	      8331	     20.78	      8.60	      8.95	      25.7	      30.0	      1.51	       146	      3302	       914	     46.64	     30.13	    271.88	    260259	      1877.80	      8.64	
   3373.00	      9.91	      5886	     21.87	      8.60	      8.97	      25.7	      30.3	      1.45	       144	      3190	       914	     46.70	     30.20	    272.35	    260800	      1940.13	      8.64	
   3373.50	     10.91	      7638	     20.41	      8.60	      8.96	      25.6	      30.9	      1.42	       143	      3296	       915	     46.73	     30.22	    272.89	    261048	      1975.54	      8.64	
   3374.00	     12.54	      7673	     21.34	      8.60	      8.95	      25.6	      30.9	      1.38	       146	      3280	       915	     46.78	     30.27	    273.33	    261438	      2002.96	      8.64	
   3374.50	     14.39	      5607	     22.14	      8.60	      8.94	      25.6	      30.9	      1.39	       147	      3180	       914	     46.84	     30.34	    273.80	    262010	      1999.07	      8.64	
   3375.00	     12.11	      9380	     19.55	      8.60	      8.94	      25.5	      30.8	      1.40	       144	      3332	       915	     46.86	     30.35	    274.38	    262164	      1996.45	      8.64	
   3375.50	     14.04	      9048	     30.70	      8.60	      8.93	      25.5	      30.9	      1.41	       158	      3199	       914	     46.90	     30.40	    274.81	    262537	      1989.68	      8.64	
   3376.00	     12.88	     11132	     27.72	      8.60	      8.94	      25.5	      30.8	      1.51	       158	      3268	       914	     46.93	     30.42	    275.35	    262799	      1997.13	      8.64	
   3376.50	     12.78	      8717	     28.01	      8.60	      8.94	      25.4	      31.3	      1.54	       157	      3185	       913	     46.97	     30.47	    275.86	    263222	      1923.71	      8.64	
   3377.00	     10.41	      9529	     29.92	      8.60	      8.95	      25.4	      31.2	      1.64	       158	      3224	       914	     47.03	     30.52	    276.39	    263748	      1828.15	      8.64	
   3377.50	      9.08	      8270	     29.45	      8.60	      8.92	      25.4	      31.7	      1.64	       158	      3160	       912	     47.08	     30.58	    276.85	    264263	      1762.24	      8.64	
   3378.00	      9.97	      7700	     29.57	      8.60	      8.87	      25.4	      31.1	      1.67	       158	      3105	       912	     47.15	     30.64	    277.38	    264847	      1823.45	      8.64	
   3378.50	      9.05	      9426	     31.41	      8.60	      8.88	      25.5	      31.1	      1.74	       157	      3209	       914	     47.22	     30.71	    277.86	    265529	      1900.28	      8.64	
   3379.00	      7.67	     10133	     30.43	      8.60	      8.91	      28.3	      30.9	      1.70	       157	      3224	       913	     47.28	     30.78	    278.38	    266137	      1958.18	      8.64	
   3379.50	      7.82	      8485	     31.01	      8.60	      8.93	      28.9	      30.8	      1.71	       158	      3165	       914	     47.34	     30.84	    278.82	    266729	      1997.47	      8.64	
   3380.00	      7.19	      7368	     32.30	      8.60	      8.94	      31.3	      31.6	      1.75	       158	      3149	       912	     47.43	     30.93	    279.38	    267558	      2001.47	      8.64	
   3380.50	      6.74	      8452	     31.26	      8.60	      8.94	      31.7	      31.7	      1.79	       158	      3170	       914	     47.49	     30.98	    279.86	    268119	      1999.22	      8.64	
   3381.00	      5.84	      8466	     31.34	      8.60	      8.96	      31.5	      31.8	      1.77	       158	      3139	       914	     47.58	     31.07	    280.37	    268976	      2027.55	      8.64	
   3381.50	      5.48	      7191	     17.04	      8.60	      8.98	      28.6	      34.7	      1.64	       131	      3236	       712	     47.88	     31.17	    280.84	    269876	      1803.26	      8.62	
   3382.00	      8.74	      6416	     21.04	      8.60	      8.89	      27.9	      32.3	      1.41	       131	      3226	       711	     47.95	     31.24	    281.37	    270404	      1849.71	      8.62	
   3382.50	     13.23	      8316	     25.00	      8.60	      8.87	      27.5	      31.6	      1.46	       130	      3303	       711	     47.98	     31.27	    281.85	    270641	      1880.75	      8.62	
   3383.00	     10.74	      9258	     26.21	      8.60	      8.90	      26.9	      31.7	      1.57	       154	      3336	       929	     48.05	     31.35	    282.37	    271320	      1951.06	      8.64	
   3383.50	      9.19	      9323	     25.65	      8.60	      8.91	      26.7	      32.2	      1.52	       157	      3359	       931	     48.09	     31.38	    282.85	    271673	      1977.14	      8.64	
   3384.00	     13.15	      9750	     25.03	      8.60	      8.90	      26.5	      32.2	      1.50	       165	      3520	       954	     48.13	     31.43	    283.38	    272082	      1979.10	      8.64	
   3384.50	     12.13	     11970	     25.26	      8.60	      8.92	      26.4	      32.3	      1.56	       163	      3591	       956	     48.18	     31.47	    283.86	    272523	      1976.75	      8.64	
   3385.00	      6.41	      7689	     24.68	      8.60	      8.95	      26.1	      32.7	      1.75	       165	      3409	       953	     48.28	     31.57	    284.31	    273553	      1974.34	      8.64	
   3385.50	      6.88	      9044	     25.26	      8.60	      8.96	      26.0	      32.5	      1.57	       164	      3447	       954	     48.34	     31.63	    284.85	    274126	      1898.41	      8.64	
   3386.00	      7.70	      9486	     27.57	      8.60	      8.96	      25.9	      32.3	      1.65	       163	      3382	       950	     48.41	     31.70	    285.37	    274826	      1774.08	      8.64	
   3386.50	      9.86	      9112	     24.73	      8.60	      8.96	      25.9	      32.1	      1.48	       164	      3404	       950	     48.45	     31.75	    285.85	    275262	      1767.09	      8.64	
   3387.00	      7.58	      8852	     25.24	      8.60	      8.88	      25.9	      31.2	      1.77	       164	      3400	       949	     48.57	     31.87	    286.39	    276449	      1885.53	      8.64	
   3387.50	      5.92	      9360	     24.35	      8.60	      8.90	      27.9	      31.2	      1.63	       164	      3453	       955	     48.63	     31.92	    286.86	    276985	      1942.84	      8.64	
