~VERSION INFORMATION
VERS.    2.0:   CWLS LOG ASCII STANDARD - VERSION 2.0
WRAP.     NO:   ONE LINE PER STEP
~WELL INFORMATION BLOCK
#MNEM.UNIT      DATA                  DESCRIPTION OF MNEMONIC
#----   --------             ---------------
STRT.m  508.00                   :START DEPTH
STOP.m  5287.00                   :STOP DEPTH
STEP.m  0.50                   :STEP VALUE
NULL.  -999.25                   :NULL VALUE
COMP.   CONOCOPHILLIPS                   :COMPANY NAME
WELL.   Poseidon North-1                   :WELL NAME
FLD .   BROWSE                   :FIELD NAME
LOC .                      :LOCATION
PROV.                      :PROVINCE
SRVC.   Geoservices                   :SERVICE COMPANY NAME
DATE.   05-06-2014 01:42:56                   :DATE
UWI .                      :UNIQUE WELL IDENTIFIER
~PARAMETER INFORMATION
~CURVE INFORMATION
#MNEM.UNIT       API CODE        CURVE DESCRIPTION
#----   -------- ------------------
 .m        :
ROP Offline .m/h        :ROP Offline
Surface Torque .lbf.ft        :Surface Torque
Weight On Bit Driller .klbm        :Weight On Bit Driller
Mud Weight In .ppg        :Mud Weight In
Mud Weight Out .ppg        :Mud Weight Out
Temperature In .degC        :Temperature In
Temperature Out .degC        :Temperature Out
D-Exponent .Euc        :D-Exponent
Total RPM [Surface + DHM] .1/min        :Total RPM [Surface + DHM]
Stand Pipe Pressure .psi        :Stand Pipe Pressure
Pump flow .gpm        :Pump flow
TotalRotaryTime .h        :TotalRotaryTime
Bit Time .h        :Bit Time
Bit Run .m        :Bit Run
TotalCumRevOnBottom .Euc        :TotalCumRevOnBottom
Sum All Pits .bbl        :Sum All Pits
ECD .ppg        :ECD
#
#-----------------------------------------------------------
#  (m)   ROP Offline (m/h)   Surface Torque (lbf.ft)   Weight On Bit Driller (klbm)   Mud Weight In (ppg)   Mud Weight Out (ppg)   Temperature In (degC)   Temperature Out (degC)   D-Exponent (Euc)   Total RPM [Surface + DHM] (1/min)   Stand Pipe Pressure (psi)   Pump flow (gpm)   TotalRotaryTime (h)   Bit Time (h)   Bit Run (m)   TotalCumRevOnBottom (Euc)   Sum All Pits (bbl)   ECD (ppg)
#-----------------------------------------------------------
~A
# ...
   5268.00	      2.75	      8092	     17.22	     13.10	     13.19	      40.1	      44.6	      1.25	       160	      3294	       448	    117.82	    114.40	   1489.29	   1064975	      1627.06	     13.64	
   5268.50	      2.87	      7454	     18.41	     13.10	     13.18	      40.6	      45.5	      1.23	       160	      3297	       448	    117.99	    114.57	   1489.78	   1066592	      1621.79	     13.64	
   5269.00	      3.43	      6452	     16.81	     13.10	     13.19	      41.6	      45.6	      1.21	       160	      3311	       449	    118.17	    114.75	   1490.34	   1068387	      1620.83	     13.64	
   5269.50	      3.39	      7494	     21.42	     13.10	     13.19	      40.5	      46.0	      1.24	       160	      3319	       449	    118.32	    114.90	   1490.85	   1069765	      1619.53	     13.64	
   5270.00	      2.36	      7179	     23.91	     13.10	     13.18	      38.9	      46.5	      1.39	       160	      3332	       448	    118.60	    115.18	   1491.38	   1072439	      1621.98	     13.64	
   5270.50	      1.92	      7121	     26.92	     13.10	     13.19	      38.2	      46.7	      1.43	       160	      3291	       448	    118.77	    115.36	   1491.86	   1074147	      1621.35	     13.64	
   5271.00	      2.53	      9197	     26.63	     13.10	     13.18	      37.5	      47.4	      1.38	       160	      3310	       449	    119.06	    115.59	   1492.43	   1076225	      1648.63	     13.64	
   5271.50	      2.83	      7102	     24.34	     13.10	     13.16	      37.0	      48.3	      1.35	       158	      3309	       449	    119.22	    115.80	   1492.86	   1078445	      1638.26	     13.64	
   5272.00	      3.08	      8336	     18.26	     13.10	     13.16	      36.6	      48.3	      1.27	       157	      3319	       449	    119.36	    115.95	   1493.44	   1079791	      1635.51	     13.64	
   5272.50	      2.91	      7016	     15.93	     13.10	     13.16	      36.3	      48.2	      1.23	       158	      3306	       449	    119.57	    116.15	   1493.92	   1081752	      1636.10	     13.64	
   5273.00	      3.37	      7869	     18.13	     13.10	     13.15	      36.1	      48.5	      1.21	       158	      3334	       449	    119.73	    116.31	   1494.48	   1083211	      1633.83	     13.64	
   5273.50	      3.33	      7132	     18.89	     13.10	     13.15	      35.8	      48.6	      1.23	       158	      3317	       449	    119.88	    116.47	   1495.02	   1084714	      1633.77	     13.64	
   5274.00	      3.46	      8083	     20.18	     13.10	     13.15	      35.7	      48.6	      1.24	       158	      3311	       449	    120.02	    116.61	   1495.51	   1086033	      1634.77	     13.64	
   5274.50	      3.70	      5979	     20.12	     13.10	     13.16	      36.1	      48.7	      1.24	       158	      3319	       449	    120.16	    116.74	   1496.01	   1087349	      1634.20	     13.64	
   5275.00	      3.40	      6375	     26.44	     13.10	     13.17	      36.8	      48.7	      1.30	       158	      3290	       449	    120.31	    116.89	   1496.51	   1088767	      1632.78	     13.64	
   5275.50	      2.94	      6903	     29.06	     13.10	     13.17	      37.7	      48.9	      1.38	       158	      3304	       449	    120.53	    117.11	   1497.09	   1090847	      1634.02	     13.64	
   5276.00	      2.24	      6943	     33.35	     13.10	     13.15	      38.6	      49.0	      1.49	       158	      3304	       449	    120.75	    117.34	   1497.58	   1092954	      1634.39	     13.64	
   5276.50	      2.47	      7071	     36.29	     13.10	     13.15	      39.3	      49.1	      1.53	       158	      3306	       449	    120.95	    117.53	   1498.08	   1094839	      1633.15	     13.64	
   5277.00	      2.16	      6489	     37.14	     13.10	     13.16	      40.7	      49.1	      1.65	       158	      3319	       449	    121.26	    117.84	   1498.64	   1097771	      1630.26	     13.64	
   5277.50	      2.68	      7854	     39.47	     13.10	     13.15	      41.3	      49.5	      1.52	       158	      3319	       449	    121.40	    117.98	   1499.15	   1099093	      1630.20	     13.64	
   5278.00	      3.27	      8079	     39.59	     13.10	     13.16	      42.4	      49.5	      1.57	       158	      3319	       449	    121.57	    118.15	   1499.64	   1100671	      1634.32	     13.63	
   5278.50	      2.71	      6675	     38.80	     13.10	     13.16	      43.2	      48.1	      1.60	       158	      3296	       449	    121.78	    118.36	   1500.16	   1102707	      1635.16	     13.63	
   5279.00	      1.83	      6876	     36.62	     13.10	     13.16	      43.9	      48.7	      1.58	       158	      3270	       449	    122.13	    118.72	   1500.72	   1106049	      1630.19	     13.62	
   5279.50	      2.05	      6670	     28.25	     13.10	     13.16	      44.1	      48.8	      1.46	       158	      3273	       449	    122.34	    118.92	   1501.22	   1108020	      1627.50	     13.62	
   5280.00	      2.45	      6667	     29.65	     13.10	     13.16	      44.3	      48.6	      1.48	       159	      3306	       449	    122.53	    119.11	   1501.72	   1109851	      1623.97	     13.62	
   5280.50	      2.05	      6594	     25.84	     13.10	     13.16	      44.7	      48.5	      1.49	       159	      3281	       448	    122.90	    119.49	   1502.28	   1113380	      1619.69	     13.62	
   5281.00	      2.25	      6573	     24.70	     13.10	     13.16	      44.9	      48.6	      1.39	       159	      3297	       449	    123.13	    119.71	   1502.78	   1115512	      1630.45	     13.62	
   5281.50	      3.15	      6930	     26.88	     13.10	     13.16	      45.1	      48.8	      1.38	       159	      3281	       448	    123.25	    119.84	   1503.27	   1116724	      1626.83	     13.62	
   5282.00	      2.47	      6785	     28.17	     13.10	     13.16	      45.3	      48.7	      1.45	       159	      3285	       448	    123.49	    120.08	   1503.79	   1119006	      1628.71	     13.62	
   5282.50	      2.52	      6887	     29.08	     13.10	     13.16	      45.5	      48.7	      1.46	       159	      3279	       448	    123.74	    120.32	   1504.37	   1121337	      1626.78	     13.62	
   5283.00	      2.20	      7721	     27.68	     13.10	     13.16	      45.7	      48.4	      1.48	       158	      3248	       447	    123.93	    120.51	   1504.85	   1123160	      1628.90	     13.62	
   5283.50	      2.33	      8566	     28.41	     13.10	     13.17	      45.5	      48.3	      1.45	       160	      3256	       448	    124.15	    120.73	   1505.37	   1125254	      1627.75	     13.62	
   5284.00	      2.34	      8166	     27.79	     13.10	     13.16	      44.3	      48.2	      1.45	       160	      3231	       447	    124.35	    120.93	   1505.89	   1127133	      1628.00	     13.62	
   5284.50	      2.09	      7664	     28.37	     13.10	     13.15	      44.1	      48.9	      1.47	       159	      3232	       447	    124.61	    121.19	   1506.39	   1129657	      1627.39	     13.62	
   5285.00	      2.09	      6578	     25.14	     13.10	     13.13	      43.7	      51.3	      1.45	       159	      3276	       448	    124.92	    121.50	   1506.87	   1132635	      1624.88	     13.62	
   5285.50	      2.08	      8007	     25.42	     13.10	     13.11	      43.9	      49.2	      1.44	       159	      3218	       447	    125.10	    121.68	   1507.41	   1134298	      1611.91	     13.62	
   5286.00	      2.05	      9023	     25.97	     13.10	     11.78	      43.9	      46.4	      1.44	       157	      3211	       447	    125.36	    121.94	   1507.93	   1136784	      1614.88	     13.62	
   5286.50	      2.01	      9044	     26.54	     13.10	     10.80	      43.7	      44.0	      1.45	       157	      3234	       447	    125.59	    122.17	   1508.45	   1138985	      1616.16	     13.62	
   5287.00	      2.09	      6819	     24.75	     13.10	     10.07	      43.4	      43.2	      1.45	       159	      3311	       448	    125.85	    122.43	   1508.96	   1141495	      1613.14	     13.62	
