~VERSION INFORMATION
VERS.    2.0:   CWLS LOG ASCII STANDARD - VERSION 2.0
WRAP.     NO:   ONE LINE PER STEP
~WELL INFORMATION BLOCK
#MNEM.UNIT      DATA                  DESCRIPTION OF MNEMONIC
#----   --------             ---------------
STRT.m  508.00                   :START DEPTH
STOP.m  5287.00                   :STOP DEPTH
STEP.m  0.50                   :STEP VALUE
NULL.  -999.25                   :NULL VALUE
COMP.   CONOCOPHILLIPS                   :COMPANY NAME
WELL.   Poseidon North-1                   :WELL NAME
FLD .   BROWSE                   :FIELD NAME
LOC .                      :LOCATION
PROV.                      :PROVINCE
SRVC.   Geoservices                   :SERVICE COMPANY NAME
DATE.   05-06-2014 01:42:56                   :DATE
UWI .                      :UNIQUE WELL IDENTIFIER
~PARAMETER INFORMATION
~CURVE INFORMATION
#MNEM.UNIT       API CODE        CURVE DESCRIPTION
#----   -------- ------------------
 .m        :
ROP Offline .m/h        :ROP Offline
Surface Torque .lbf.ft        :Surface Torque
Weight On Bit Driller .klbm        :Weight On Bit Driller
Mud Weight In .ppg        :Mud Weight In
Mud Weight Out .ppg        :Mud Weight Out
Temperature In .degC        :Temperature In
Temperature Out .degC        :Temperature Out
D-Exponent .Euc        :D-Exponent
Total RPM [Surface + DHM] .1/min        :Total RPM [Surface + DHM]
Stand Pipe Pressure .psi        :Stand Pipe Pressure
Pump flow .gpm        :Pump flow
TotalRotaryTime .h        :TotalRotaryTime
Bit Time .h        :Bit Time
Bit Run .m        :Bit Run
TotalCumRevOnBottom .Euc        :TotalCumRevOnBottom
Sum All Pits .bbl        :Sum All Pits
ECD .ppg        :ECD
#
#-----------------------------------------------------------
#  (m)   ROP Offline (m/h)   Surface Torque (lbf.ft)   Weight On Bit Driller (klbm)   Mud Weight In (ppg)   Mud Weight Out (ppg)   Temperature In (degC)   Temperature Out (degC)   D-Exponent (Euc)   Total RPM [Surface + DHM] (1/min)   Stand Pipe Pressure (psi)   Pump flow (gpm)   TotalRotaryTime (h)   Bit Time (h)   Bit Run (m)   TotalCumRevOnBottom (Euc)   Sum All Pits (bbl)   ECD (ppg)
#-----------------------------------------------------------
~A
# ...
    828.00	    128.49	      2122	      1.36	      8.60	      0.25	      30.9	      39.4	      0.45	       136	      2638	      1094	     15.35	      2.09	    268.52	     16330	      2279.84	      8.62	
    828.50	    127.95	      3074	      1.54	      8.60	      0.25	      30.9	      39.4	      0.44	       136	      2609	      1098	     15.35	      2.10	    269.01	     16362	      2275.07	      8.62	
    829.00	    129.42	      2123	      1.41	      8.60	      0.25	      30.9	      39.3	      0.40	       136	      2623	      1095	     15.35	      2.10	    269.45	     16389	      2278.31	      8.62	
    829.50	    129.82	      2101	      0.81	      8.60	      0.25	      30.9	      39.2	      0.45	       138	      2709	      1097	     15.36	      2.10	    269.94	     16421	      2293.29	      8.62	
    830.00	    128.56	      2729	      1.96	      8.60	      0.25	      30.9	      39.2	      0.45	       136	      2855	      1095	     15.36	      2.11	    270.44	     16453	      2293.02	      8.62	
    830.50	    129.90	      1746	      1.54	      8.60	      0.25	      30.9	      39.3	      0.44	       137	      2702	      1099	     15.37	      2.11	    270.96	     16485	      2285.90	      8.62	
    831.00	    115.53	       925	      1.34	      8.60	      0.25	      30.9	      39.3	      0.35	       137	      2715	      1100	     15.37	      2.12	    271.54	     16528	      2270.51	      8.62	
    831.50	     75.79	      2233	      0.00	      8.60	      0.25	      30.9	      39.4	      0.44	       134	      2759	      1113	     15.53	      2.13	    271.93	     16599	      2297.46	      8.62	
    832.00	     87.46	      2858	      0.00	      8.60	      0.25	      30.9	      39.4	      0.47	       134	      2805	      1114	     15.54	      2.13	    272.44	     16630	      2296.51	      8.62	
    832.50	    140.79	      2595	      0.00	      8.60	      0.25	      30.9	      39.4	      0.42	       134	      2751	      1114	     15.54	      2.13	    272.96	     16657	      2298.50	      8.62	
    833.00	    146.71	      1634	      4.46	      8.60	      0.25	      30.9	      39.4	      0.42	       135	      2736	      1114	     15.54	      2.14	    273.53	     16688	      2301.24	      8.62	
    833.50	    117.56	      2793	      4.26	      8.60	      0.25	      30.9	      39.4	      0.48	       133	      2749	      1112	     15.55	      2.14	    273.94	     16728	      2298.46	      8.62	
    834.00	    119.14	      2657	      0.00	      8.60	      0.25	      30.9	      39.4	      0.44	       134	      2705	      1112	     15.55	      2.15	    274.50	     16760	      2296.90	      8.62	
    834.50	    149.49	      2334	      3.01	      8.60	      0.25	      30.9	      39.3	      0.37	       134	      2736	      1114	     15.56	      2.15	    274.93	     16782	      2298.02	      8.62	
    835.00	    146.65	      3992	      0.00	      8.60	      0.25	      30.9	      39.4	      0.42	       133	      2798	      1114	     15.56	      2.15	    275.47	     16813	      2293.22	      8.62	
    835.50	    143.70	      2125	      1.43	      8.60	      0.25	      30.9	      39.3	      0.43	       134	      2773	      1113	     15.56	      2.16	    275.99	     16840	      2294.49	      8.62	
    836.00	    149.96	      2249	      1.10	      8.60	      0.25	      30.9	      39.4	      0.40	       134	      2743	      1115	     15.57	      2.16	    276.48	     16867	      2290.55	      8.62	
    836.50	    155.22	      3108	      0.29	      8.60	      0.25	      30.9	      39.3	      0.39	       133	      2767	      1115	     15.57	      2.16	    277.00	     16894	      2293.20	      8.62	
    837.00	    155.85	      3775	      0.00	      8.60	      0.25	      30.9	      39.3	      0.36	       133	      2814	      1115	     15.57	      2.17	    277.43	     16916	      2295.02	      8.62	
    837.50	    152.71	      2378	      1.10	      8.60	      0.25	      30.9	      39.3	      0.35	       134	      2764	      1114	     15.58	      2.17	    277.96	     16943	      2294.54	      8.62	
    838.00	    151.16	      1730	      0.00	      8.60	      0.25	      30.9	      39.3	      0.37	       135	      2768	      1115	     15.58	      2.17	    278.45	     16969	      2295.86	      8.62	
    838.50	    153.03	      2260	      0.09	      8.60	      0.25	      30.9	      39.3	      0.39	       135	      2749	      1115	     15.58	      2.18	    278.94	     16996	      2311.23	      8.62	
    839.00	    152.73	      2396	      1.50	      8.60	      0.25	      30.9	      39.3	      0.42	       134	      2830	      1114	     15.59	      2.18	    279.46	     17023	      2311.24	      8.62	
    839.50	    146.32	      3441	      1.60	      8.60	      0.25	      30.9	      39.3	      0.41	       134	      2756	      1111	     15.59	      2.18	    279.92	     17050	      2320.36	      8.62	
    840.00	    131.53	      2083	      3.14	      8.60	      0.25	      30.9	      39.4	      0.41	       134	      2774	      1114	     15.59	      2.19	    280.50	     17086	      2311.53	      8.62	
    840.50	    134.71	      1869	      0.48	      8.60	      0.25	      30.9	      39.3	      0.43	       135	      2796	      1113	     15.60	      2.19	    280.97	     17112	      2316.33	      8.62	
    841.00	    157.26	      2517	      0.02	      8.60	      0.25	      30.9	      39.3	      0.41	       134	      2768	      1113	     15.60	      2.19	    281.50	     17139	      2308.82	      8.62	
    841.50	    162.28	      2240	      2.22	      8.60	      0.25	      30.9	      39.3	      0.40	       135	      2829	      1112	     15.60	      2.20	    281.97	     17161	      2305.72	      8.62	
    842.00	    171.26	      2007	      1.50	      8.60	      0.25	      30.9	      39.4	      0.40	       135	      2693	      1115	     15.61	      2.20	    282.46	     17184	      2306.19	      8.62	
    842.50	    168.14	      2346	      0.00	      8.60	      0.25	      30.9	      39.3	      0.42	       134	      2794	      1114	     15.61	      2.20	    282.99	     17211	      2307.15	      8.62	
    843.00	    148.86	      1419	      0.57	      8.60	      0.25	      30.9	      39.4	      0.42	       135	      2771	      1112	     15.61	      2.21	    283.49	     17237	      2311.82	      8.62	
    843.50	    142.98	      2192	      1.43	      8.60	      0.25	      30.9	      39.2	      0.43	       134	      2715	      1113	     15.62	      2.21	    284.01	     17269	      2314.59	      8.62	
    844.00	    131.04	      1934	      0.88	      8.60	      0.25	      30.9	      39.3	      0.44	       134	      2751	      1113	     15.62	      2.21	    284.52	     17300	      2324.55	      8.62	
    844.50	    126.72	      2115	      1.36	      8.60	      0.25	      30.9	      39.3	      0.44	       134	      2685	      1111	     15.62	      2.22	    284.99	     17331	      2323.15	      8.62	
    845.00	    122.53	      2243	      0.38	      8.60	      0.25	      30.9	      39.3	      0.42	       133	      2698	      1109	     15.63	      2.22	    285.46	     17363	      2323.18	      8.62	
    845.50	    129.22	      2130	      1.14	      8.60	      0.25	      30.9	      39.3	      0.44	       134	      2733	      1112	     15.63	      2.23	    285.99	     17394	      2322.05	      8.62	
    846.00	    137.40	      3145	      4.00	      8.60	      0.25	      30.9	      39.2	      0.42	       134	      2755	      1111	     15.64	      2.23	    286.46	     17421	      2317.74	      8.62	
    846.50	    139.98	      2934	      0.75	      8.60	      0.25	      30.9	      39.3	      0.41	       133	      2580	      1108	     15.64	      2.23	    287.00	     17452	      2309.12	      8.62	
    847.00	    138.49	      1774	      0.88	      8.60	      0.25	      30.9	      39.3	      0.41	       134	      2586	      1107	     15.64	      2.24	    287.46	     17479	      2307.17	      8.62	
    847.50	    132.40	      2067	      1.96	      8.60	      0.25	      30.9	      39.3	      0.42	       133	      2510	      1101	     15.65	      2.24	    287.95	     17510	      2298.81	      8.62	
