~VERSION INFORMATION
VERS.    2.0:   CWLS LOG ASCII STANDARD - VERSION 2.0
WRAP.     NO:   ONE LINE PER STEP
~WELL INFORMATION BLOCK
#MNEM.UNIT      DATA                  DESCRIPTION OF MNEMONIC
#----   --------             ---------------
STRT.m  508.00                   :START DEPTH
STOP.m  5287.00                   :STOP DEPTH
STEP.m  0.50                   :STEP VALUE
NULL.  -999.25                   :NULL VALUE
COMP.   CONOCOPHILLIPS                   :COMPANY NAME
WELL.   Poseidon North-1                   :WELL NAME
FLD .   BROWSE                   :FIELD NAME
LOC .                      :LOCATION
PROV.                      :PROVINCE
SRVC.   Geoservices                   :SERVICE COMPANY NAME
DATE.   05-06-2014 01:42:56                   :DATE
UWI .                      :UNIQUE WELL IDENTIFIER
~PARAMETER INFORMATION
~CURVE INFORMATION
#MNEM.UNIT       API CODE        CURVE DESCRIPTION
#----   -------- ------------------
 .m        :
ROP Offline .m/h        :ROP Offline
Surface Torque .lbf.ft        :Surface Torque
Weight On Bit Driller .klbm        :Weight On Bit Driller
Mud Weight In .ppg        :Mud Weight In
Mud Weight Out .ppg        :Mud Weight Out
Temperature In .degC        :Temperature In
Temperature Out .degC        :Temperature Out
D-Exponent .Euc        :D-Exponent
Total RPM [Surface + DHM] .1/min        :Total RPM [Surface + DHM]
Stand Pipe Pressure .psi        :Stand Pipe Pressure
Pump flow .gpm        :Pump flow
TotalRotaryTime .h        :TotalRotaryTime
Bit Time .h        :Bit Time
Bit Run .m        :Bit Run
TotalCumRevOnBottom .Euc        :TotalCumRevOnBottom
Sum All Pits .bbl        :Sum All Pits
ECD .ppg        :ECD
#
#-----------------------------------------------------------
#  (m)   ROP Offline (m/h)   Surface Torque (lbf.ft)   Weight On Bit Driller (klbm)   Mud Weight In (ppg)   Mud Weight Out (ppg)   Temperature In (degC)   Temperature Out (degC)   D-Exponent (Euc)   Total RPM [Surface + DHM] (1/min)   Stand Pipe Pressure (psi)   Pump flow (gpm)   TotalRotaryTime (h)   Bit Time (h)   Bit Run (m)   TotalCumRevOnBottom (Euc)   Sum All Pits (bbl)   ECD (ppg)
#-----------------------------------------------------------
~A
# ...
   1468.00	     79.48	      8101	      0.00	      8.60	      0.25	      31.3	      35.9	      0.52	       156	      3081	      1102	      5.45	      3.10	    117.73	     28580	      2326.56	      8.62	
   1468.50	     94.03	      9499	      1.61	      8.60	      0.25	      31.3	      36.0	      0.50	       156	      3153	      1097	      5.45	      3.10	    118.25	     28640	      2328.84	      8.62	
   1469.00	     89.18	      7238	      2.35	      8.60	      0.25	      31.3	      35.8	      0.52	       156	      3142	      1103	      5.46	      3.11	    118.80	     28692	      2327.37	      8.62	
   1469.50	     97.50	      6142	      2.60	      8.60	      0.25	      31.3	      35.9	      0.50	       156	      3099	      1102	      5.46	      3.11	    119.24	     28733	      2334.16	      8.62	
   1470.00	     87.95	      7598	      1.55	      8.60	      0.25	      31.3	      35.8	      0.53	       156	      2979	      1098	      5.47	      3.12	    119.75	     28780	      2329.44	      8.62	
   1470.50	     78.90	      9457	      3.63	      8.60	      0.25	      31.3	      35.9	      0.54	       156	      3233	      1102	      5.48	      3.13	    120.29	     28861	      2339.76	      8.62	
   1471.00	     70.27	     10760	      3.01	      8.60	      0.25	      31.3	      36.0	      0.52	       156	      3220	      1103	      5.48	      3.13	    120.76	     28923	      2343.19	      8.62	
   1471.50	     72.19	      3993	      0.84	      8.60	      0.25	      31.3	      35.9	      0.56	       156	      2998	      1096	      5.49	      3.14	    121.28	     29002	      2343.21	      8.62	
   1472.00	     45.33	     11164	      1.48	      8.60	      0.25	      31.3	      35.8	      0.64	       155	      3224	      1102	      5.50	      3.15	    121.79	     29101	      2305.24	      8.62	
   1472.50	     40.14	      9376	      0.37	      8.60	      0.25	      31.3	      35.9	      0.61	       156	      3286	      1103	      5.52	      3.17	    122.25	     29228	      2325.35	      8.62	
   1473.00	     73.35	      9383	      2.10	      8.60	      0.25	      31.3	      35.8	      0.53	       156	      3123	      1102	      5.52	      3.17	    122.67	     29262	      2321.29	      8.62	
   1473.50	    105.42	      4414	      1.77	      8.60	      0.25	      31.3	      36.1	      0.49	       157	      3103	      1102	      5.52	      3.18	    123.25	     29312	      2324.65	      8.62	
   1474.00	     90.57	      5953	      2.89	      8.60	      0.25	      31.3	      36.1	      0.55	       157	      3199	      1099	      5.53	      3.18	    123.80	     29369	      2304.14	      8.62	
   1474.50	     77.49	     11715	      2.27	      8.60	      0.25	      31.3	      36.0	      0.59	       155	      3259	      1101	      5.54	      3.19	    124.26	     29431	      2311.60	      8.62	
   1475.00	     53.77	      6067	      1.05	      8.60	      0.25	      31.3	      35.9	      0.61	       155	      3200	      1102	      5.55	      3.20	    124.76	     29541	      2324.98	      8.62	
   1475.50	     50.98	      6086	      1.56	      8.60	      0.25	      31.3	      35.9	      0.59	       156	      3056	      1102	      5.56	      3.21	    125.27	     29630	      2305.21	      8.62	
   1476.00	     59.07	      6509	      2.23	      8.60	      0.25	      31.3	      35.8	      0.60	       156	      3123	      1103	      5.57	      3.22	    125.74	     29695	      2305.58	      8.62	
   1476.50	     60.76	      7305	      1.90	      8.60	      0.25	      31.3	      35.9	      0.56	       157	      3186	      1103	      5.57	      3.23	    126.28	     29776	      2323.59	      8.62	
   1477.00	     56.82	      9914	      2.26	      8.60	      0.25	      31.3	      35.9	      0.60	       156	      3254	      1101	      5.58	      3.23	    126.78	     29864	      2332.49	      8.62	
   1477.50	     56.63	      6934	      1.40	      8.60	      0.25	      31.3	      35.7	      0.58	       156	      3238	      1103	      5.59	      3.24	    127.26	     29939	      2333.83	      8.62	
   1478.00	     70.18	      9436	      1.28	      8.60	      0.25	      31.3	      35.6	      0.54	       155	      3120	      1101	      5.60	      3.25	    127.71	     29994	      2331.20	      8.62	
   1478.50	     86.62	      4482	      0.95	      8.60	      0.25	      31.3	      36.0	      0.49	       157	      3090	      1100	      5.60	      3.25	    128.29	     30051	      2332.97	      8.62	
   1479.00	     83.02	      5919	      1.20	      8.60	      0.25	      31.3	      35.7	      0.49	       157	      2956	      1099	      5.61	      3.26	    128.77	     30114	      2333.71	      8.62	
   1479.50	     52.91	      5117	      0.53	      8.60	      0.25	      31.3	      35.9	      0.56	       158	      3046	      1097	      5.63	      3.28	    129.29	     30265	      2333.69	      8.62	
   1480.00	     57.20	      6287	      0.04	      8.60	      0.25	      31.3	      36.0	      0.56	       156	      3004	      1098	      5.63	      3.28	    129.77	     30320	      2332.99	      8.62	
   1480.50	     81.39	      7441	      0.74	      8.60	      0.25	      31.3	      35.9	      0.52	       157	      3182	      1100	      5.64	      3.29	    130.26	     30375	      2331.15	      8.62	
   1481.00	     59.53	      5392	      0.83	      8.60	      0.25	      31.3	      35.7	      0.56	       157	      3058	      1099	      5.65	      3.30	    130.74	     30495	      2332.30	      8.62	
   1481.50	     52.81	      8139	      1.24	      8.60	      0.25	      31.3	      35.9	      0.56	       156	      3193	      1099	      5.66	      3.31	    131.25	     30570	      2330.37	      8.62	
   1482.00	     64.92	      7330	      0.65	      8.60	      0.25	      31.3	      35.7	      0.52	       156	      3072	      1101	      5.67	      3.32	    131.81	     30643	      2328.09	      8.62	
   1482.50	     52.73	      7571	      1.64	      8.60	      0.25	      31.3	      36.0	      0.56	       156	      3015	      1097	      5.68	      3.33	    132.29	     30752	      2309.32	      8.62	
   1483.00	     50.86	      8951	      0.66	      8.60	      0.25	      31.3	      36.0	      0.55	       156	      2972	      1100	      5.69	      3.34	    132.77	     30843	      2293.17	      8.62	
   1483.50	     83.49	      7564	      1.73	      8.60	      0.25	      31.3	      35.8	      0.47	       155	      2934	      1094	      5.69	      3.34	    133.24	     30885	      2288.17	      8.62	
   1484.00	     77.00	      4916	      0.05	      8.60	      0.25	      31.4	      35.8	      0.48	       156	      2751	      1091	      5.70	      3.35	    133.75	     30960	      2274.22	      8.62	
   1484.50	     31.14	      3725	      0.53	      8.60	      0.25	      31.3	      35.9	      0.61	       152	      1981	      1058	      5.73	      3.38	    134.24	     31190	      2268.46	      8.62	
   1485.00	     23.15	      2939	      0.53	      8.60	      0.25	      31.4	      35.8	      0.65	       154	      2129	      1065	      5.75	      3.40	    134.74	     31429	      2280.48	      8.62	
   1485.50	     41.03	      3834	      0.67	      8.60	      0.25	      31.3	      35.8	      0.58	       154	      2246	      1072	      5.76	      3.41	    135.29	     31519	      2289.54	      8.62	
   1486.00	     40.02	      6683	      1.73	      8.60	      0.25	      31.3	      35.9	      0.61	       155	      2729	      1087	      5.77	      3.42	    135.80	     31629	      2299.16	      8.62	
   1486.50	     35.95	      8332	      1.90	      8.60	      0.25	      31.4	      35.6	      0.62	       156	      3050	      1101	      5.79	      3.44	    136.29	     31790	      2310.75	      8.62	
   1487.00	     71.84	      4367	      0.80	      8.60	      0.25	      31.4	      35.8	      0.53	       159	      3119	      1102	      5.80	      3.45	    136.79	     31837	      2313.97	      8.62	
   1487.50	     87.97	      7622	      0.99	      8.60	      0.25	      31.3	      36.0	      0.51	       157	      3140	      1102	      5.80	      3.45	    137.25	     31889	      2318.68	      8.62	
