~VERSION INFORMATION
VERS.    2.0:   CWLS LOG ASCII STANDARD - VERSION 2.0
WRAP.     NO:   ONE LINE PER STEP
~WELL INFORMATION BLOCK
#MNEM.UNIT      DATA                  DESCRIPTION OF MNEMONIC
#----   --------             ---------------
STRT.m  508.00                   :START DEPTH
STOP.m  5287.00                   :STOP DEPTH
STEP.m  0.50                   :STEP VALUE
NULL.  -999.25                   :NULL VALUE
COMP.   CONOCOPHILLIPS                   :COMPANY NAME
WELL.   Poseidon North-1                   :WELL NAME
FLD .   BROWSE                   :FIELD NAME
LOC .                      :LOCATION
PROV.                      :PROVINCE
SRVC.   Geoservices                   :SERVICE COMPANY NAME
DATE.   05-06-2014 01:42:56                   :DATE
UWI .                      :UNIQUE WELL IDENTIFIER
~PARAMETER INFORMATION
~CURVE INFORMATION
#MNEM.UNIT       API CODE        CURVE DESCRIPTION
#----   -------- ------------------
 .m        :
ROP Offline .m/h        :ROP Offline
Surface Torque .lbf.ft        :Surface Torque
Weight On Bit Driller .klbm        :Weight On Bit Driller
Mud Weight In .ppg        :Mud Weight In
Mud Weight Out .ppg        :Mud Weight Out
Temperature In .degC        :Temperature In
Temperature Out .degC        :Temperature Out
D-Exponent .Euc        :D-Exponent
Total RPM [Surface + DHM] .1/min        :Total RPM [Surface + DHM]
Stand Pipe Pressure .psi        :Stand Pipe Pressure
Pump flow .gpm        :Pump flow
TotalRotaryTime .h        :TotalRotaryTime
Bit Time .h        :Bit Time
Bit Run .m        :Bit Run
TotalCumRevOnBottom .Euc        :TotalCumRevOnBottom
Sum All Pits .bbl        :Sum All Pits
ECD .ppg        :ECD
#
#-----------------------------------------------------------
#  (m)   ROP Offline (m/h)   Surface Torque (lbf.ft)   Weight On Bit Driller (klbm)   Mud Weight In (ppg)   Mud Weight Out (ppg)   Temperature In (degC)   Temperature Out (degC)   D-Exponent (Euc)   Total RPM [Surface + DHM] (1/min)   Stand Pipe Pressure (psi)   Pump flow (gpm)   TotalRotaryTime (h)   Bit Time (h)   Bit Run (m)   TotalCumRevOnBottom (Euc)   Sum All Pits (bbl)   ECD (ppg)
#-----------------------------------------------------------
~A
# ...
   1148.00	     56.99	      3583	      0.95	      8.60	      0.25	      30.9	      38.0	      0.61	       147	      3065	      1120	     20.17	      4.39	    588.51	     39013	      2272.92	      8.62	
   1148.50	     75.01	      5674	      2.99	      8.60	      0.25	      30.9	      38.0	      0.58	       146	      3129	      1128	     20.18	      4.40	    589.03	     39072	      2274.16	      8.62	
   1149.00	     43.57	      4466	      1.97	      8.60	      0.25	      30.9	      38.0	      0.65	       143	      2874	      1110	     20.19	      4.41	    589.52	     39189	      2293.84	      8.62	
   1149.50	     36.68	      9343	      2.68	      8.60	      0.25	      30.9	      37.9	      0.66	       143	      2839	      1103	     20.21	      4.42	    589.99	     39328	      2304.92	      8.62	
   1150.00	     75.88	      2289	      3.69	      8.60	      0.25	      30.9	      38.0	      0.57	       147	      2946	      1116	     20.21	      4.43	    590.52	     39376	      2309.36	      8.62	
   1150.50	     98.12	      6076	      2.11	      8.60	      0.25	      30.9	      38.0	      0.50	       144	      3038	      1111	     20.22	      4.43	    591.00	     39415	      2310.76	      8.62	
   1151.00	    125.46	      3291	      3.37	      8.60	      0.25	      30.9	      37.9	      0.49	       146	      2906	      1116	     20.22	      4.44	    591.50	     39449	      2308.07	      8.62	
   1151.50	    127.20	      4635	      3.62	      8.60	      0.25	      30.9	      37.9	      0.48	       145	      2903	      1109	     20.22	      4.44	    591.99	     39483	      2308.68	      8.62	
   1152.00	    126.55	      7747	      2.63	      8.60	      0.25	      30.9	      38.1	      0.48	       144	      2996	      1111	     20.23	      4.45	    592.49	     39517	      2307.49	      8.62	
   1152.50	    122.87	      4586	      3.69	      8.60	      0.25	      30.9	      38.0	      0.49	       145	      2979	      1113	     20.23	      4.45	    592.95	     39550	      2296.73	      8.62	
   1153.00	    118.06	      4950	      2.87	      8.60	      0.25	      30.9	      38.0	      0.49	       145	      2973	      1114	     20.24	      4.45	    593.48	     39589	      2295.77	      8.62	
   1153.50	    117.36	      4628	      3.06	      8.60	      0.25	      30.9	      38.0	      0.49	       144	      2989	      1109	     20.24	      4.46	    594.00	     39628	      2292.82	      8.62	
   1154.00	    113.66	      4922	      1.67	      8.60	      0.25	      30.9	      37.9	      0.50	       144	      3004	      1109	     20.25	      4.46	    594.51	     39666	      2294.64	      8.62	
   1154.50	    109.80	      7389	      3.29	      8.60	      0.25	      30.9	      38.0	      0.51	       144	      2975	      1116	     20.25	      4.47	    594.99	     39710	      2305.97	      8.62	
   1155.00	     93.34	      8116	      2.00	      8.60	      0.25	      30.9	      38.0	      0.54	       144	      2994	      1117	     20.26	      4.47	    595.50	     39758	      2309.23	      8.62	
   1155.50	     88.62	      3636	      2.37	      8.60	      0.25	      30.9	      38.0	      0.53	       146	      3013	      1115	     20.26	      4.48	    595.98	     39804	      2306.01	      8.62	
   1156.00	     86.55	      4106	      1.45	      8.60	      0.25	      30.9	      37.9	      0.54	       145	      2932	      1109	     20.27	      4.49	    596.47	     39855	      2281.17	      8.62	
   1156.50	     83.43	      7444	      2.96	      8.60	      0.25	      30.9	      38.0	      0.55	       144	      2991	      1113	     20.27	      4.49	    597.01	     39913	      2295.16	      8.62	
   1157.00	     85.08	     10208	      2.71	      8.60	      0.25	      30.9	      38.0	      0.54	       144	      2944	      1115	     20.28	      4.50	    597.52	     39960	      2292.05	      8.62	
   1157.50	     75.66	      8560	      3.16	      8.60	      0.25	      30.9	      37.9	      0.57	       144	      2935	      1111	     20.29	      4.51	    597.96	     40025	      2287.32	      8.62	
   1158.00	     77.68	      5062	      4.13	      8.60	      0.25	      30.9	      37.9	      0.56	       145	      2964	      1114	     20.29	      4.51	    598.47	     40076	      2299.37	      8.62	
   1158.50	     97.54	      7429	      2.11	      8.60	      0.25	      30.9	      38.0	      0.53	       144	      2891	      1113	     20.30	      4.52	    599.00	     40119	      2297.67	      8.62	
   1159.00	     99.61	      9676	      3.06	      8.60	      0.25	      30.9	      38.0	      0.52	       144	      2946	      1114	     20.30	      4.52	    599.51	     40162	      2301.65	      8.62	
   1159.50	     88.68	      5531	      3.12	      8.60	      0.25	      30.9	      38.0	      0.55	       144	      2965	      1109	     20.31	      4.53	    599.96	     40210	      2309.85	      8.62	
   1160.00	     77.95	      9592	      4.46	      8.60	      0.25	      30.9	      38.0	      0.58	       143	      2909	      1110	     20.31	      4.53	    600.47	     40268	      2309.82	      8.62	
   1160.50	     71.95	      5893	      3.75	      8.60	      0.25	      30.9	      37.8	      0.58	       144	      2928	      1111	     20.32	      4.54	    601.00	     40333	      2308.65	      8.62	
   1161.00	     73.65	      6516	      2.25	      8.60	      0.25	      30.9	      37.9	      0.57	       144	      2878	      1111	     20.33	      4.55	    601.49	     40390	      2294.18	      8.62	
   1161.50	     90.78	      8712	      3.62	      8.60	      0.25	      30.9	      37.8	      0.54	       143	      2908	      1111	     20.33	      4.55	    601.99	     40433	      2300.83	      8.62	
   1162.00	    105.65	      8050	      4.00	      8.60	      0.25	      30.9	      37.8	      0.52	       144	      2980	      1112	     20.34	      4.56	    602.50	     40477	      2298.35	      8.62	
   1162.50	    108.44	      4201	      2.30	      8.60	      0.25	      30.9	      38.0	      0.53	       145	      2985	      1112	     20.34	      4.56	    603.01	     40515	      2297.34	      8.62	
   1163.00	    106.66	      6629	      3.37	      8.60	      0.25	      30.9	      38.0	      0.52	       144	      3009	      1111	     20.35	      4.57	    603.53	     40558	      2313.97	      8.62	
   1163.50	    103.31	      7278	      2.93	      8.60	      0.25	      30.9	      37.8	      0.52	       145	      2957	      1115	     20.35	      4.57	    603.98	     40597	      2304.53	      8.62	
   1164.00	    106.97	      6039	      1.37	      8.60	      0.25	      30.9	      37.9	      0.51	       144	      2901	      1110	     20.36	      4.58	    604.53	     40640	      2289.10	      8.62	
   1164.50	    109.48	      7792	      2.49	      8.60	      0.25	      30.9	      37.9	      0.50	       143	      2783	      1112	     20.36	      4.58	    605.00	     40679	      2270.08	      8.62	
   1165.00	    107.82	      8186	      4.44	      8.60	      0.25	      31.0	      38.0	      0.50	       143	      2759	      1107	     20.37	      4.59	    605.48	     40717	      2264.83	      8.62	
   1165.50	    107.26	      4722	      2.99	      8.60	      0.25	      30.9	      37.9	      0.50	       144	      2724	      1107	     20.37	      4.59	    606.01	     40760	      2263.81	      8.62	
   1166.00	    104.57	      5884	      3.43	      8.60	      0.25	      30.9	      37.9	      0.50	       144	      2711	      1106	     20.38	      4.59	    606.47	     40799	      2254.76	      8.62	
   1166.50	    103.82	      8329	      1.61	      8.60	      0.25	      30.9	      37.9	      0.51	       143	      2669	      1104	     20.38	      4.60	    607.00	     40842	      2241.80	      8.62	
   1167.00	    104.10	      7685	      2.74	      8.60	      0.25	      30.9	      37.8	      0.53	       143	      2694	      1102	     20.39	      4.60	    607.55	     40884	      2218.45	      8.62	
   1167.50	    102.59	      8514	      2.74	      8.60	      0.25	      30.9	      37.9	      0.52	       143	      2633	      1105	     20.39	      4.61	    607.98	     40922	      2237.46	      8.62	
