~VERSION INFORMATION
VERS.    2.0:   CWLS LOG ASCII STANDARD - VERSION 2.0
WRAP.     NO:   ONE LINE PER STEP
~WELL INFORMATION BLOCK
#MNEM.UNIT      DATA                  DESCRIPTION OF MNEMONIC
#----   --------             ---------------
STRT.m  508.00                   :START DEPTH
STOP.m  5287.00                   :STOP DEPTH
STEP.m  0.50                   :STEP VALUE
NULL.  -999.25                   :NULL VALUE
COMP.   CONOCOPHILLIPS                   :COMPANY NAME
WELL.   Poseidon North-1                   :WELL NAME
FLD .   BROWSE                   :FIELD NAME
LOC .                      :LOCATION
PROV.                      :PROVINCE
SRVC.   Geoservices                   :SERVICE COMPANY NAME
DATE.   05-06-2014 01:42:56                   :DATE
UWI .                      :UNIQUE WELL IDENTIFIER
~PARAMETER INFORMATION
~CURVE INFORMATION
#MNEM.UNIT       API CODE        CURVE DESCRIPTION
#----   -------- ------------------
 .m        :
ROP Offline .m/h        :ROP Offline
Surface Torque .lbf.ft        :Surface Torque
Weight On Bit Driller .klbm        :Weight On Bit Driller
Mud Weight In .ppg        :Mud Weight In
Mud Weight Out .ppg        :Mud Weight Out
Temperature In .degC        :Temperature In
Temperature Out .degC        :Temperature Out
D-Exponent .Euc        :D-Exponent
Total RPM [Surface + DHM] .1/min        :Total RPM [Surface + DHM]
Stand Pipe Pressure .psi        :Stand Pipe Pressure
Pump flow .gpm        :Pump flow
TotalRotaryTime .h        :TotalRotaryTime
Bit Time .h        :Bit Time
Bit Run .m        :Bit Run
TotalCumRevOnBottom .Euc        :TotalCumRevOnBottom
Sum All Pits .bbl        :Sum All Pits
ECD .ppg        :ECD
#
#-----------------------------------------------------------
#  (m)   ROP Offline (m/h)   Surface Torque (lbf.ft)   Weight On Bit Driller (klbm)   Mud Weight In (ppg)   Mud Weight Out (ppg)   Temperature In (degC)   Temperature Out (degC)   D-Exponent (Euc)   Total RPM [Surface + DHM] (1/min)   Stand Pipe Pressure (psi)   Pump flow (gpm)   TotalRotaryTime (h)   Bit Time (h)   Bit Run (m)   TotalCumRevOnBottom (Euc)   Sum All Pits (bbl)   ECD (ppg)
#-----------------------------------------------------------
~A
# ...
   2408.00	     14.65	      4903	     10.54	      8.60	      0.25	      33.6	      38.4	      1.07	       157	      3649	      1112	     68.59	     52.01	   1057.74	    514603	      2161.90	      8.62	
   2408.50	     14.94	      9816	     10.16	      8.60	      0.25	      33.6	      38.4	      1.07	       156	      3651	      1110	     68.62	     52.04	   1058.30	    514898	      2160.28	      8.62	
   2409.00	     19.26	      4734	     11.12	      8.60	      0.25	      33.6	      38.4	      1.03	       157	      3586	      1112	     68.65	     52.07	   1058.75	    515185	      2163.55	      8.62	
   2409.50	     20.24	      8067	     11.60	      8.60	      0.25	      33.6	      38.3	      1.03	       155	      3653	      1112	     68.67	     52.09	   1059.29	    515399	      2163.99	      8.62	
   2410.00	     17.11	      6068	     11.08	      8.60	      0.25	      33.6	      38.2	      1.06	       159	      3620	      1112	     68.71	     52.13	   1059.77	    515743	      2148.09	      8.62	
   2410.50	     19.79	      4140	     12.63	      8.60	      0.25	      33.7	      38.3	      1.01	       156	      3638	      1113	     68.73	     52.15	   1060.28	    515926	      2148.02	      8.62	
   2411.00	     24.07	     14977	     10.77	      8.60	      0.25	      33.6	      38.2	      0.99	       156	      3709	      1112	     68.75	     52.17	   1060.79	    516140	      2143.95	      8.62	
   2411.50	     23.15	     14454	     10.70	      8.60	      0.25	      33.6	      38.2	      1.01	       156	      3730	      1112	     68.77	     52.19	   1061.30	    516341	      2147.53	      8.62	
   2412.00	     23.59	      8209	     11.30	      8.60	      0.25	      33.6	      38.3	      0.99	       160	      3727	      1112	     68.79	     52.21	   1061.74	    516546	      2150.26	      8.62	
   2412.50	     25.48	     10009	     11.21	      8.60	      0.25	      33.6	      38.3	      0.99	       157	      3713	      1112	     68.81	     52.24	   1062.28	    516748	      2150.04	      8.62	
   2413.00	     18.99	     12546	     11.48	      8.60	      0.25	      33.6	      38.3	      1.05	       156	      3621	      1110	     68.84	     52.26	   1062.73	    516998	      2155.85	      8.62	
   2413.50	     17.90	      8135	     11.01	      8.60	      0.25	      33.6	      38.3	      1.04	       157	      3754	      1113	     68.87	     52.29	   1063.32	    517269	      2152.97	      8.62	
   2414.00	     24.06	     11888	     10.70	      8.60	      0.25	      33.6	      38.3	      0.98	       156	      3769	      1113	     68.89	     52.31	   1063.78	    517462	      2148.81	      8.62	
   2414.50	     26.89	      8714	     10.72	      8.60	      0.25	      33.6	      38.3	      0.95	       158	      3729	      1111	     68.91	     52.33	   1064.24	    517632	      2149.57	      8.62	
   2415.00	     24.79	     12403	     10.31	      8.60	      0.25	      33.6	      38.2	      0.98	       156	      3665	      1113	     68.92	     52.35	   1064.80	    517796	      2150.16	      8.62	
   2415.50	     23.27	     12280	     11.33	      8.60	      0.25	      33.5	      38.2	      1.00	       156	      3681	      1111	     68.95	     52.37	   1065.28	    518039	      2151.45	      8.62	
   2416.00	     21.74	     15685	     11.00	      8.60	      0.25	      33.6	      38.2	      1.01	       155	      3672	      1110	     68.97	     52.39	   1065.78	    518240	      2152.20	      8.62	
   2416.50	     21.11	      8269	     11.09	      8.60	      0.25	      33.6	      38.2	      1.10	       157	      3588	      1110	     69.00	     52.43	   1066.24	    518535	      2151.97	      8.62	
   2417.00	     13.37	      9708	      9.32	      8.60	      0.25	      33.7	      38.1	      1.07	       160	      3736	      1141	     69.47	     52.48	   1066.80	    519091	      2055.86	      8.62	
   2417.50	     17.25	     12390	      9.60	      8.60	      0.25	      33.7	      38.2	      0.97	       160	      3920	      1146	     69.49	     52.50	   1067.29	    519235	      2058.21	      8.62	
   2418.00	     21.36	     11739	      8.53	      8.60	      0.25	      33.7	      38.2	      0.97	       159	      3759	      1111	     69.51	     52.52	   1067.75	    519467	      2054.85	      8.62	
   2418.50	     22.56	     12075	     10.31	      8.60	      0.25	      33.6	      38.2	      0.96	       156	      3630	      1109	     69.54	     52.55	   1068.31	    519720	      2063.20	      8.62	
   2419.00	     25.67	      9100	      9.10	      8.60	      0.25	      33.6	      38.2	      0.92	       157	      3725	      1113	     69.56	     52.57	   1068.77	    519881	      2069.15	      8.62	
   2419.50	     30.27	     14179	      7.89	      8.60	      0.25	      33.7	      38.2	      0.87	       156	      3622	      1113	     69.57	     52.58	   1069.28	    520019	      2066.28	      8.62	
   2420.00	     29.40	     11176	      9.37	      8.60	      0.25	      33.7	      38.1	      0.95	       156	      3598	      1113	     69.59	     52.60	   1069.73	    520163	      2077.14	      8.62	
   2420.50	     24.16	      8905	     10.81	      8.60	      0.25	      33.7	      38.2	      0.99	       158	      3625	      1111	     69.61	     52.63	   1070.30	    520422	      2076.94	      8.62	
   2421.00	     22.78	     12564	      8.87	      8.60	      0.25	      33.7	      38.1	      0.95	       157	      3653	      1114	     69.64	     52.65	   1070.77	    520634	      2070.58	      8.62	
   2421.50	     23.63	     10061	      9.23	      8.60	      0.25	      33.7	      38.1	      0.97	       157	      3603	      1112	     69.66	     52.67	   1071.30	    520865	      2074.28	      8.62	
   2422.00	     21.43	     12240	      8.99	      8.60	      0.25	      33.7	      38.1	      0.96	       157	      3583	      1113	     69.69	     52.70	   1071.77	    521106	      2063.99	      8.62	
   2422.50	     24.49	     11565	      8.56	      8.60	      0.25	      33.7	      38.1	      0.92	       158	      3788	      1114	     69.70	     52.71	   1072.23	    521253	      2075.02	      8.62	
   2423.00	     28.09	      8043	      9.47	      8.60	      0.25	      33.7	      38.1	      0.93	       159	      3828	      1116	     69.72	     52.73	   1072.73	    521424	      2063.26	      8.62	
   2423.50	     25.36	     10064	      8.05	      8.60	      0.25	      33.7	      38.1	      0.97	       157	      3776	      1115	     69.74	     52.75	   1073.28	    521639	      2064.77	      8.62	
   2424.00	     20.98	     10826	      8.96	      8.60	      0.25	      33.7	      38.1	      0.97	       157	      3834	      1116	     69.77	     52.78	   1073.76	    521854	      2062.25	      8.62	
   2424.50	     21.35	     12503	      9.00	      8.60	      0.25	      33.6	      38.1	      0.93	       157	      3772	      1116	     69.79	     52.80	   1074.25	    522070	      2065.77	      8.62	
   2425.00	     27.81	     16289	      8.15	      8.60	      0.25	      33.7	      38.1	      0.92	       161	      3960	      1117	     69.81	     52.82	   1074.77	    522242	      2063.38	      8.62	
   2425.50	     25.56	     11502	      9.27	      8.60	      0.25	      33.6	      38.1	      0.92	       158	      3783	      1115	     69.83	     52.84	   1075.27	    522420	      2064.88	      8.62	
   2426.00	     30.12	     13124	      9.52	      8.60	      0.25	      33.7	      38.2	      0.90	       157	      3775	      1114	     69.84	     52.85	   1075.80	    522577	      2069.23	      8.62	
   2426.50	     30.02	     13669	      8.72	      8.60	      0.25	      33.7	      38.0	      0.93	       157	      3737	      1114	     69.86	     52.87	   1076.26	    522770	      2070.84	      8.62	
   2427.00	     23.46	      9156	      8.59	      8.60	      0.25	      33.6	      38.2	      0.97	       157	      3765	      1116	     69.88	     52.89	   1076.78	    522949	      2070.15	      8.62	
   2427.50	     21.16	     12083	      8.30	      8.60	      0.25	      33.7	      38.0	      0.96	       157	      3710	      1113	     69.91	     52.92	   1077.28	    523208	      2068.81	      8.62	
